[{"price": 300000, "address": "Arneiros%20-%20Avenida%20Uruguai%20-%20Charquinho%2C%20Benfica", "id": "30623413", "size": 126, "url": "https://www.idealista.pt/en/imovel/30623413/", "created": "31-07-2020 00:12:48", "geo": [{"latitude": 38.75087, "longitude": -9.20282, "type": "locality", "name": "Benfica", "number": null, "postal_code": null, "street": null, "confidence": 0.6, "region": "Lisboa", "region_code": "LI", "county": null, "locality": "Benfica", "administrative_area": null, "neighbourhood": null, "country": "Portugal", "country_code": "PRT", "continent": "Europe", "label": "Benfica, Portugal"}, {"latitude": 38.7379, "longitude": -9.1967, "type": "locality", "name": "Benfica", "number": null, "postal_code": null, "street": null, "confidence": 0.6, "region": "Lisboa", "region_code": "LI", "county": null, "locality": "Benfica", "administrative_area": null, "neighbourhood": null, "country": "Portugal", "country_code": "PRT", "continent": "Europe", "label": "Benfica, Portugal"}, {"latitude": 38.74603, "longitude": -9.17384, "type": "locality", "name": "S\u00e3o Domingos de Benfica", "number": null, "postal_code": null, "street": null, "confidence": 0.6, "region": "Lisboa", "region_code": "LI", "county": null, "locality": "S\u00e3o Domingos de Benfica", "administrative_area": null, "neighbourhood": null, "country": "Portugal", "country_code": "PRT", "continent": "Europe", "label": "S\u00e3o Domingos de Benfica, Portugal"}, {"latitude": 39.08807, "longitude": -9.31249, "type": "locality", "name": "Benfica", "number": null, "postal_code": null, "street": null, "confidence": 0.6, "region": "Lisboa", "region_code": "LI", "county": null, "locality": "Benfica", "administrative_area": null, "neighbourhood": null, "country": "Portugal", "country_code": "PRT", "continent": "Europe", "label": "Benfica, Portugal"}]}, {"price": 695000, "address": "Areeiro%2C%20Lisboa", "id": "30621335", "size": 165, "url": "https://www.idealista.pt/en/imovel/30621335/", "created": "31-07-2020 00:12:48", "geo": [{"latitude": 38.742894, "longitude": -9.133657, "type": "venue", "name": "Areeiro", "number": null, "postal_code": null, "street": null, "confidence": 1, "region": "Lisboa", "region_code": "LI", "county": null, "locality": null, "administrative_area": null, "neighbourhood": "Alto do Pina", "country": "Portugal", "country_code": "PRT", "continent": "Europe", "label": "Areeiro, Portugal"}, {"latitude": 38.73333, "longitude": -9.13333, "type": "locality", "name": "Areeiro", "number": null, "postal_code": null, "street": null, "confidence": 1, "region": "Lisboa", "region_code": "LI", "county": null, "locality": "Areeiro", "administrative_area": null, "neighbourhood": null, "country": "Portugal", "country_code": "PRT", "continent": "Europe", "label": "Areeiro, Portugal"}, {"latitude": 38.745499, "longitude": -9.13528, "type": "venue", "name": "Esta\u00e7\u00e3o de Roma-Areeiro", "number": null, "postal_code": null, "street": null, "confidence": 1, "region": "Lisboa", "region_code": "LI", "county": null, "locality": null, "administrative_area": null, "neighbourhood": "Campo Pequeno, Lisbon, Portugal", "country": "Portugal", "country_code": "PRT", "continent": "Europe", "label": "Esta\u00e7\u00e3o de Roma-Areeiro, Portugal"}, {"latitude": 38.745633, "longitude": -9.134433, "type": "venue", "name": "Roma-Areeiro", "number": null, "postal_code": "1000-009", "street": "Avenida de Roma", "confidence": 1, "region": "Lisboa", "region_code": "LI", "county": null, "locality": null, "administrative_area": null, "neighbourhood": "Alto do Pina", "country": "Portugal", "country_code": "PRT", "continent": "Europe", "label": "Roma-Areeiro, Portugal"}, {"latitude": 38.745512, "longitude": -9.136801, "type": "venue", "name": "Roma-Areeiro", "number": null, "postal_code": null, "street": null, "confidence": 1, "region": "Lisboa", "region_code": "LI", "county": null, "locality": null, "administrative_area": null, "neighbourhood": "Campo Pequeno, Lisbon, Portugal", "country": "Portugal", "country_code": "PRT", "continent": "Europe", "label": "Roma-Areeiro, Portugal"}]}, {"price": 967000, "address": "Alc%C3%A2ntara%2C%20Lisboa", "id": "30624929", "size": 120, "url": "https://www.idealista.pt/en/imovel/30624929/", "created": "31-07-2020 00:12:48", "geo": [{"latitude": 38.71115, "longitude": -9.18391, "type": "locality", "name": "Alc\u00e2ntara", "number": null, "postal_code": null, "street": null, "confidence": 1, "region": "Lisboa", "region_code": "LI", "county": null, "locality": "Alc\u00e2ntara", "administrative_area": null, "neighbourhood": null, "country": "Portugal", "country_code": "PRT", "continent": "Europe", "label": "Alc\u00e2ntara, Portugal"}, {"latitude": 38.701963, "longitude": -9.18052, "type": "neighbourhood", "name": "Alc\u00e2ntara", "number": null, "postal_code": null, "street": null, "confidence": 1, "region": "Lisboa", "region_code": "LI", "county": null, "locality": null, "administrative_area": null, "neighbourhood": "Alc\u00e2ntara", "country": "Portugal", "country_code": "PRT", "continent": "Europe", "label": "Alc\u00e2ntara, Portugal"}, {"latitude": 38.706885, "longitude": -9.173159, "type": "venue", "name": "Alc\u00e2ntara", "number": null, "postal_code": null, "street": null, "confidence": 1, "region": "Lisboa", "region_code": "LI", "county": null, "locality": null, "administrative_area": null, "neighbourhood": "Alc\u00e2ntara", "country": "Portugal", "country_code": "PRT", "continent": "Europe", "label": "Alc\u00e2ntara, Portugal"}, {"latitude": 38.71115, "longitude": -9.18391, "type": "localadmin", "name": "Alc\u00e2ntara", "number": null, "postal_code": null, "street": null, "confidence": 1, "region": "Lisboa", "region_code": "LI", "county": null, "locality": null, "administrative_area": "Alc\u00e2ntara", "neighbourhood": null, "country": "Portugal", "country_code": "PRT", "continent": "Europe", "label": "Alc\u00e2ntara, Portugal"}, {"latitude": 38.706588, "longitude": -9.178846, "type": "venue", "name": "Alc\u00e2ntara - Cal\u00e7ada da Tapada", "number": null, "postal_code": null, "street": null, "confidence": 1, "region": "Lisboa", "region_code": "LI", "county": null, "locality": null, "administrative_area": null, "neighbourhood": "Alc\u00e2ntara", "country": "Portugal", "country_code": "PRT", "continent": "Europe", "label": "Alc\u00e2ntara - Cal\u00e7ada da Tapada, Portugal"}, {"latitude": 38.70613, "longitude": -9.173474, "type": "venue", "name": "Para\u00edso Alc\u00e2ntara", "number": null, "postal_code": null, "street": "Rua Prior do Crato", "confidence": 1, "region": "Lisboa", "region_code": "LI", "county": null, "locality": null, "administrative_area": null, "neighbourhood": "Alc\u00e2ntara", "country": "Portugal", "country_code": "PRT", "continent": "Europe", "label": "Para\u00edso Alc\u00e2ntara, Portugal"}, {"latitude": 38.702957, "longitude": -9.173346, "type": "venue", "name": "Alc\u00e2ntara Mar", "number": null, "postal_code": null, "street": null, "confidence": 1, "region": "Lisboa", "region_code": "LI", "county": null, "locality": null, "administrative_area": null, "neighbourhood": "Alc\u00e2ntara", "country": "Portugal", "country_code": "PRT", "continent": "Europe", "label": "Alc\u00e2ntara Mar, Portugal"}]}, {"price": 4200000, "address": "Lapa%2C%20Estrela", "id": "30622310", "size": 603, "url": "https://www.idealista.pt/en/imovel/30622310/", "created": "31-07-2020 00:12:48", "geo": [{"latitude": 38.71189, "longitude": -9.16007, "type": "locality", "name": "Lapa", "number": null, "postal_code": null, "street": null, "confidence": 1, "region": "Lisboa", "region_code": "LI", "county": null, "locality": "Lapa", "administrative_area": null, "neighbourhood": null, "country": "Portugal", "country_code": "PRT", "continent": "Europe", "label": "Lapa, Portugal"}, {"latitude": 38.93333, "longitude": -9.21667, "type": "locality", "name": "Lapa", "number": null, "postal_code": null, "street": null, "confidence": 1, "region": "Lisboa", "region_code": "LI", "county": null, "locality": "Lapa", "administrative_area": null, "neighbourhood": null, "country": "Portugal", "country_code": "PRT", "continent": "Europe", "label": "Lapa, Portugal"}, {"latitude": 38.89698, "longitude": -9.20987, "type": "locality", "name": "Lapa", "number": null, "postal_code": null, "street": null, "confidence": 1, "region": "Lisboa", "region_code": "LI", "county": null, "locality": "Lapa", "administrative_area": null, "neighbourhood": null, "country": "Portugal", "country_code": "PRT", "continent": "Europe", "label": "Lapa, Portugal"}, {"latitude": 38.711009, "longitude": -9.158529, "type": "venue", "name": "Lapa", "number": null, "postal_code": null, "street": null, "confidence": 1, "region": "Lisboa", "region_code": "LI", "county": null, "locality": null, "administrative_area": null, "neighbourhood": "Lapa", "country": "Portugal", "country_code": "PRT", "continent": "Europe", "label": "Lapa, Portugal"}, {"latitude": 38.706813, "longitude": -9.163832, "type": "venue", "name": "Olissippo Lapa Palace Hotel", "number": "4", "postal_code": "1249-021", "street": "Rua do Pau de Bandeira", "confidence": 1, "region": "Lisboa", "region_code": "LI", "county": null, "locality": null, "administrative_area": null, "neighbourhood": "Madragoa", "country": "Portugal", "country_code": "PRT", "continent": "Europe", "label": "Olissippo Lapa Palace Hotel, Portugal"}, {"latitude": 39.306552, "longitude": -9.262331, "type": "venue", "name": "Lapa Furada", "number": null, "postal_code": null, "street": null, "confidence": 1, "region": "Lisboa", "region_code": "LI", "county": null, "locality": null, "administrative_area": null, "neighbourhood": null, "country": "Portugal", "country_code": "PRT", "continent": "Europe", "label": "Lapa Furada, Portugal"}, {"latitude": 38.708077, "longitude": -9.181757, "type": "venue", "name": "Ferreira Lapa", "number": null, "postal_code": null, "street": null, "confidence": 1, "region": "Lisboa", "region_code": "LI", "county": null, "locality": null, "administrative_area": null, "neighbourhood": "Alc\u00e2ntara", "country": "Portugal", "country_code": "PRT", "continent": "Europe", "label": "Ferreira Lapa, Portugal"}, {"latitude": 38.710814, "longitude": -9.161395, "type": "venue", "name": "Rua de Santana \u00e0 Lapa", "number": null, "postal_code": null, "street": null, "confidence": 1, "region": "Lisboa", "region_code": "LI", "county": null, "locality": null, "administrative_area": null, "neighbourhood": "Lapa", "country": "Portugal", "country_code": "PRT", "continent": "Europe", "label": "Rua de Santana \u00e0 Lapa, Portugal"}, {"latitude": 39.299078, "longitude": -9.20095, "type": "venue", "name": "Gruta da Lapa do Su\u00e3o", "number": null, "postal_code": null, "street": null, "confidence": 1, "region": "Lisboa", "region_code": "LI", "county": null, "locality": null, "administrative_area": null, "neighbourhood": null, "country": "Portugal", "country_code": "PRT", "continent": "Europe", "label": "Gruta da Lapa do Su\u00e3o, Portugal"}, {"latitude": 38.810963, "longitude": -9.228035, "type": "venue", "name": "Campo da Lapa", "number": null, "postal_code": null, "street": null, "confidence": 1, "region": "Lisboa", "region_code": "LI", "county": null, "locality": null, "administrative_area": null, "neighbourhood": null, "country": "Portugal", "country_code": "PRT", "continent": "Europe", "label": "Campo da Lapa, Portugal"}]}, {"price": 685000, "address": "Parque%20das%20Na%C3%A7%C3%B5es%2C%20Lisboa", "id": "30624325", "size": 132, "url": "https://www.idealista.pt/en/imovel/30624325/", "created": "31-07-2020 00:12:48", "geo": [{"latitude": 38.793547, "longitude": -9.097822, "type": "venue", "name": "Parque das Na\u00e7\u00f5es Norte", "number": null, "postal_code": null, "street": null, "confidence": 1, "region": "Lisboa", "region_code": "LI", "county": null, "locality": null, "administrative_area": null, "neighbourhood": null, "country": "Portugal", "country_code": "PRT", "continent": "Europe", "label": "Parque das Na\u00e7\u00f5es Norte, Portugal"}, {"latitude": 38.765054, "longitude": -9.100012, "type": "neighbourhood", "name": "Parque das Nacoes", "number": null, "postal_code": null, "street": null, "confidence": 1, "region": "Lisboa", "region_code": "LI", "county": null, "locality": null, "administrative_area": null, "neighbourhood": "Parque das Nacoes", "country": "Portugal", "country_code": "PRT", "continent": "Europe", "label": "Parque das Nacoes, Portugal"}, {"latitude": 38.755394, "longitude": -9.096865, "type": "venue", "name": "Parque das Na\u00e7\u00f5es Sul", "number": null, "postal_code": null, "street": null, "confidence": 1, "region": "Lisboa", "region_code": "LI", "county": null, "locality": null, "administrative_area": null, "neighbourhood": "Bra\u00e7o de Prata", "country": "Portugal", "country_code": "PRT", "continent": "Europe", "label": "Parque das Na\u00e7\u00f5es Sul, Portugal"}, {"latitude": 38.76908, "longitude": -9.09632, "type": "locality", "name": "Parque das Na\u00e7\u00f5es", "number": null, "postal_code": null, "street": null, "confidence": 1, "region": "Lisboa", "region_code": "LI", "county": null, "locality": "Parque das Na\u00e7\u00f5es", "administrative_area": null, "neighbourhood": null, "country": "Portugal", "country_code": "PRT", "continent": "Europe", "label": "Parque das Na\u00e7\u00f5es, Portugal"}, {"latitude": 38.767726, "longitude": -9.092334, "type": "venue", "name": "Sakura (Parque das Na\u00e7\u00f5es)", "number": "2.25.01", "postal_code": null, "street": "Passeio das T\u00e1gides", "confidence": 1, "region": "Lisboa", "region_code": "LI", "county": null, "locality": null, "administrative_area": null, "neighbourhood": "Chelas", "country": "Portugal", "country_code": "PRT", "continent": "Europe", "label": "Sakura (Parque das Na\u00e7\u00f5es), Portugal"}, {"latitude": 38.778736, "longitude": -9.094555, "type": "venue", "name": "Farm\u00e1cia Parque das Na\u00e7\u00f5es", "number": "6A R/C (antigo 4.28.01.H)", "postal_code": "1990-237", "street": "Jardim dos Jacarand\u00e1s", "confidence": 1, "region": "Lisboa", "region_code": "LI", "county": null, "locality": null, "administrative_area": null, "neighbourhood": null, "country": "Portugal", "country_code": "PRT", "continent": "Europe", "label": "Farm\u00e1cia Parque das Na\u00e7\u00f5es, Portugal"}, {"latitude": 38.774359, "longitude": -9.097504, "type": "venue", "name": "Holmes Place Parque das Na\u00e7\u00f5es", "number": "lote 1.19.03/C", "postal_code": "1990-098", "street": "Avenida Dom Jo\u00e3o II", "confidence": 1, "region": "Lisboa", "region_code": "LI", "county": null, "locality": null, "administrative_area": null, "neighbourhood": null, "country": "Portugal", "country_code": "PRT", "continent": "Europe", "label": "Holmes Place Parque das Na\u00e7\u00f5es, Portugal"}, {"latitude": 38.77109, "longitude": -9.09685, "type": "venue", "name": "Ibis Lisboa Parque Das Nacoes", "number": null, "postal_code": null, "street": null, "confidence": 1, "region": "Lisboa", "region_code": "LI", "county": null, "locality": null, "administrative_area": null, "neighbourhood": "Olivais Sul", "country": "Portugal", "country_code": "PRT", "continent": "Europe", "label": "Ibis Lisboa Parque Das Nacoes, Portugal"}, {"latitude": 38.756647, "longitude": -9.097856, "type": "venue", "name": "Resid\u00eancia Montepio Parque das Na\u00e7\u00f5es", "number": null, "postal_code": null, "street": null, "confidence": 1, "region": "Lisboa", "region_code": "LI", "county": null, "locality": null, "administrative_area": null, "neighbourhood": "Bra\u00e7o de Prata", "country": "Portugal", "country_code": "PRT", "continent": "Europe", "label": "Resid\u00eancia Montepio Parque das Na\u00e7\u00f5es, Portugal"}, {"latitude": 38.7836, "longitude": -9.096479, "type": "street", "name": "Passeio das G\u00e1veas ao Parque das Na\u00e7\u00f5es", "number": null, "postal_code": null, "street": "Passeio das G\u00e1veas ao Parque das Na\u00e7\u00f5es", "confidence": 1, "region": "Lisboa", "region_code": "LI", "county": null, "locality": null, "administrative_area": null, "neighbourhood": null, "country": "Portugal", "country_code": "PRT", "continent": "Europe", "label": "Passeio das G\u00e1veas ao Parque das Na\u00e7\u00f5es, Portugal"}]}, {"price": 998000, "address": "avenida%20Estados%20Unidos%20da%20Am%C3%A9rica%2C%20Campo%20Grande%2C%20Alvalade", "id": "30619106", "size": 252, "url": "https://www.idealista.pt/en/imovel/30619106/", "created": "31-07-2020 00:12:48", "geo": [{"latitude": 38.749612, "longitude": -9.139817, "type": "venue", "name": "Parque Infantil da Avenida Estados Unidos da Am\u00e9rica- Lado Nascente", "number": null, "postal_code": null, "street": null, "confidence": 1, "region": "Lisboa", "region_code": "LI", "county": null, "locality": null, "administrative_area": null, "neighbourhood": "Campo Pequeno, Lisbon, Portugal", "country": "Portugal", "country_code": "PRT", "continent": "Europe", "label": "Parque Infantil da Avenida Estados Unidos da Am\u00e9rica- Lado Nascente, Portugal"}, {"latitude": 38.749293, "longitude": -9.142644, "type": "street", "name": "Avenida dos Estados Unidos da Am\u00e9rica", "number": null, "postal_code": null, "street": "Avenida dos Estados Unidos da Am\u00e9rica", "confidence": 1, "region": "Lisboa", "region_code": "LI", "county": null, "locality": null, "administrative_area": null, "neighbourhood": "Campo Pequeno, Lisbon, Portugal", "country": "Portugal", "country_code": "PRT", "continent": "Europe", "label": "Avenida dos Estados Unidos da Am\u00e9rica, Portugal"}, {"latitude": 38.750223, "longitude": -9.137275, "type": "venue", "name": "Avenida Rio de Janeiro / Avenida dos Estados Unidos da Am\u00e9rica", "number": null, "postal_code": null, "street": null, "confidence": 1, "region": "Lisboa", "region_code": "LI", "county": null, "locality": null, "administrative_area": null, "neighbourhood": "Alvalade", "country": "Portugal", "country_code": "PRT", "continent": "Europe", "label": "Avenida Rio de Janeiro / Avenida dos Estados Unidos da Am\u00e9rica, Portugal"}, {"latitude": 38.749043, "longitude": -9.145249, "type": "venue", "name": "Parque Infantil da Avenida Estados Unidos da Am\u00e9rica", "number": null, "postal_code": null, "street": null, "confidence": 1, "region": "Lisboa", "region_code": "LI", "county": null, "locality": null, "administrative_area": null, "neighbourhood": "Entrecampos", "country": "Portugal", "country_code": "PRT", "continent": "Europe", "label": "Parque Infantil da Avenida Estados Unidos da Am\u00e9rica, Portugal"}, {"latitude": 38.748904, "longitude": -9.132875, "type": "venue", "name": "Avenida dos Estados Unidos da Am\u00e9rica", "number": null, "postal_code": null, "street": null, "confidence": 1, "region": "Lisboa", "region_code": "LI", "county": null, "locality": null, "administrative_area": null, "neighbourhood": "Alto do Pina", "country": "Portugal", "country_code": "PRT", "continent": "Europe", "label": "Avenida dos Estados Unidos da Am\u00e9rica, Portugal"}, {"latitude": 38.748413, "longitude": -9.14678, "type": "venue", "name": "Entrecampos / Avenida dos Estados Unidos da Am\u00e9rica", "number": null, "postal_code": null, "street": null, "confidence": 1, "region": "Lisboa", "region_code": "LI", "county": null, "locality": null, "administrative_area": null, "neighbourhood": "Entrecampos", "country": "Portugal", "country_code": "PRT", "continent": "Europe", "label": "Entrecampos / Avenida dos Estados Unidos da Am\u00e9rica, Portugal"}, {"latitude": 38.748979, "longitude": -9.136751, "type": "venue", "name": "Avenida Rio de Janeiro / Avenida dos Estados Unidos da Am\u00e9rica", "number": null, "postal_code": null, "street": null, "confidence": 1, "region": "Lisboa", "region_code": "LI", "county": null, "locality": null, "administrative_area": null, "neighbourhood": "Campo Pequeno, Lisbon, Portugal", "country": "Portugal", "country_code": "PRT", "continent": "Europe", "label": "Avenida Rio de Janeiro / Avenida dos Estados Unidos da Am\u00e9rica, Portugal"}]}, {"price": 315000, "address": "rua%20Joaquim%20Casimiro%2C%20NN%2C%20Prazeres%2C%20Estrela", "id": "30622892", "size": 127, "url": "https://www.idealista.pt/en/imovel/30622892/", "created": "31-07-2020 00:12:48", "geo": [{"latitude": 38.706085, "longitude": -9.16707, "type": "street", "name": "Rua Joaquim Casimiro", "number": null, "postal_code": null, "street": "Rua Joaquim Casimiro", "confidence": 1, "region": "Lisboa", "region_code": "LI", "county": null, "locality": null, "administrative_area": null, "neighbourhood": "Madragoa", "country": "Portugal", "country_code": "PRT", "continent": "Europe", "label": "Rua Joaquim Casimiro, Portugal"}, {"latitude": 38.735531, "longitude": -9.336976, "type": "venue", "name": "Praceta Joaquim Santos Casimiro", "number": null, "postal_code": null, "street": null, "confidence": 1, "region": "Lisboa", "region_code": "LI", "county": null, "locality": null, "administrative_area": null, "neighbourhood": null, "country": "Portugal", "country_code": "PRT", "continent": "Europe", "label": "Praceta Joaquim Santos Casimiro, Portugal"}, {"latitude": 38.81224, "longitude": -9.165306, "type": "street", "name": "Rua Jos\u00e9 Casimiro", "number": null, "postal_code": null, "street": "Rua Jos\u00e9 Casimiro", "confidence": 1, "region": "Lisboa", "region_code": "LI", "county": null, "locality": null, "administrative_area": null, "neighbourhood": "Lumiar", "country": "Portugal", "country_code": "PRT", "continent": "Europe", "label": "Rua Jos\u00e9 Casimiro, Portugal"}, {"latitude": 39.231142, "longitude": -9.328807, "type": "street", "name": "Rua Casimiro Duarte", "number": null, "postal_code": null, "street": "Rua Casimiro Duarte", "confidence": 1, "region": "Lisboa", "region_code": "LI", "county": null, "locality": "Lourinh\u00e3", "administrative_area": null, "neighbourhood": null, "country": "Portugal", "country_code": "PRT", "continent": "Europe", "label": "Rua Casimiro Duarte, Lourinh\u00e3, Portugal"}, {"latitude": 38.785425, "longitude": -9.344414, "type": "street", "name": "Rua Mirita Casimiro", "number": null, "postal_code": null, "street": "Rua Mirita Casimiro", "confidence": 1, "region": "Lisboa", "region_code": "LI", "county": null, "locality": null, "administrative_area": null, "neighbourhood": null, "country": "Portugal", "country_code": "PRT", "continent": "Europe", "label": "Rua Mirita Casimiro, Portugal"}, {"latitude": 38.739021, "longitude": -9.129906, "type": "street", "name": "Rua Casimiro Freire", "number": null, "postal_code": null, "street": "Rua Casimiro Freire", "confidence": 1, "region": "Lisboa", "region_code": "LI", "county": null, "locality": null, "administrative_area": null, "neighbourhood": "Alto do Pina", "country": "Portugal", "country_code": "PRT", "continent": "Europe", "label": "Rua Casimiro Freire, Portugal"}, {"latitude": 38.749737, "longitude": -9.205327, "type": "street", "name": "Rua Mirita Casimiro", "number": null, "postal_code": null, "street": "Rua Mirita Casimiro", "confidence": 1, "region": "Lisboa", "region_code": "LI", "county": null, "locality": null, "administrative_area": null, "neighbourhood": "Benfica", "country": "Portugal", "country_code": "PRT", "continent": "Europe", "label": "Rua Mirita Casimiro, Portugal"}, {"latitude": 38.815068, "longitude": -9.160801, "type": "street", "name": "Rua Mariano Casimiro", "number": null, "postal_code": null, "street": "Rua Mariano Casimiro", "confidence": 1, "region": "Lisboa", "region_code": "LI", "county": null, "locality": null, "administrative_area": null, "neighbourhood": "Lumiar", "country": "Portugal", "country_code": "PRT", "continent": "Europe", "label": "Rua Mariano Casimiro, Portugal"}, {"latitude": 38.704952, "longitude": -9.431017, "type": "street", "name": "Rua Ant\u00f3nio Casimiro de Almeida", "number": null, "postal_code": null, "street": "Rua Ant\u00f3nio Casimiro de Almeida", "confidence": 1, "region": "Lisboa", "region_code": "LI", "county": null, "locality": null, "administrative_area": null, "neighbourhood": null, "country": "Portugal", "country_code": "PRT", "continent": "Europe", "label": "Rua Ant\u00f3nio Casimiro de Almeida, Portugal"}, {"latitude": 38.707448, "longitude": -9.403571, "type": "venue", "name": "Teatro Municipal Mirita Casimiro", "number": null, "postal_code": "2765-412", "street": "Avenida Fausto de Figueiredo", "confidence": 1, "region": "Lisboa", "region_code": "LI", "county": null, "locality": null, "administrative_area": null, "neighbourhood": null, "country": "Portugal", "country_code": "PRT", "continent": "Europe", "label": "Teatro Municipal Mirita Casimiro, Portugal"}]}, {"price": 495000, "address": "rua%20C%C3%A2ndido%20Figueiredo%2C%20NN%2C%20S%C3%A3o%20Domingos%20de%20Benfica%2C%20Lisboa", "id": "30620182", "size": 135, "url": "https://www.idealista.pt/en/imovel/30620182/", "created": "31-07-2020 00:12:48", "geo": [{"latitude": 38.745073, "longitude": -9.176654, "type": "street", "name": "Rua C\u00e2ndido de Figueiredo", "number": null, "postal_code": null, "street": "Rua C\u00e2ndido de Figueiredo", "confidence": 0.8, "region": "Lisboa", "region_code": "LI", "county": null, "locality": null, "administrative_area": null, "neighbourhood": "Furnas", "country": "Portugal", "country_code": "PRT", "continent": "Europe", "label": "Rua C\u00e2ndido de Figueiredo, Portugal"}, {"latitude": 38.74837, "longitude": -9.206213, "type": "street", "name": "Rua Tom\u00e1s de Figueiredo", "number": null, "postal_code": null, "street": "Rua Tom\u00e1s de Figueiredo", "confidence": 0.8, "region": "Lisboa", "region_code": "LI", "county": null, "locality": null, "administrative_area": null, "neighbourhood": "Benfica", "country": "Portugal", "country_code": "PRT", "continent": "Europe", "label": "Rua Tom\u00e1s de Figueiredo, Portugal"}, {"latitude": 38.751893, "longitude": -9.206543, "type": "street", "name": "Rua Doutor Figueiredo", "number": null, "postal_code": null, "street": "Rua Doutor Figueiredo", "confidence": 0.8, "region": "Lisboa", "region_code": "LI", "county": null, "locality": null, "administrative_area": null, "neighbourhood": null, "country": "Portugal", "country_code": "PRT", "continent": "Europe", "label": "Rua Doutor Figueiredo, Portugal"}, {"latitude": 38.705864, "longitude": -9.240979, "type": "street", "name": "Rua Antero de Figueiredo", "number": null, "postal_code": null, "street": "Rua Antero de Figueiredo", "confidence": 0.8, "region": "Lisboa", "region_code": "LI", "county": null, "locality": null, "administrative_area": null, "neighbourhood": null, "country": "Portugal", "country_code": "PRT", "continent": "Europe", "label": "Rua Antero de Figueiredo, Portugal"}, {"latitude": 38.74698, "longitude": -9.137985, "type": "street", "name": "Rua Antero de Figueiredo", "number": null, "postal_code": null, "street": "Rua Antero de Figueiredo", "confidence": 0.8, "region": "Lisboa", "region_code": "LI", "county": null, "locality": null, "administrative_area": null, "neighbourhood": "Campo Pequeno, Lisbon, Portugal", "country": "Portugal", "country_code": "PRT", "continent": "Europe", "label": "Rua Antero de Figueiredo, Portugal"}, {"latitude": 38.713673, "longitude": -9.44581, "type": "street", "name": "Rua Fausto de Figueiredo", "number": null, "postal_code": null, "street": "Rua Fausto de Figueiredo", "confidence": 0.8, "region": "Lisboa", "region_code": "LI", "county": null, "locality": null, "administrative_area": null, "neighbourhood": null, "country": "Portugal", "country_code": "PRT", "continent": "Europe", "label": "Rua Fausto de Figueiredo, Portugal"}, {"latitude": 38.770218, "longitude": -9.112589, "type": "street", "name": "Rua Major Figueiredo Rodrigues", "number": null, "postal_code": null, "street": "Rua Major Figueiredo Rodrigues", "confidence": 0.8, "region": "Lisboa", "region_code": "LI", "county": null, "locality": null, "administrative_area": null, "neighbourhood": "Olivais Sul", "country": "Portugal", "country_code": "PRT", "continent": "Europe", "label": "Rua Major Figueiredo Rodrigues, Portugal"}, {"latitude": 38.723623, "longitude": -9.245269, "type": "street", "name": "Rua Augusto Figueiredo", "number": null, "postal_code": null, "street": "Rua Augusto Figueiredo", "confidence": 0.8, "region": "Lisboa", "region_code": "LI", "county": null, "locality": null, "administrative_area": null, "neighbourhood": null, "country": "Portugal", "country_code": "PRT", "continent": "Europe", "label": "Rua Augusto Figueiredo, Portugal"}, {"latitude": 38.700124, "longitude": -9.330441, "type": "street", "name": "Rua Manuel Figueiredo", "number": null, "postal_code": null, "street": "Rua Manuel Figueiredo", "confidence": 0.8, "region": "Lisboa", "region_code": "LI", "county": null, "locality": null, "administrative_area": null, "neighbourhood": "Rato", "country": "Portugal", "country_code": "PRT", "continent": "Europe", "label": "Rua Manuel Figueiredo, Portugal"}, {"latitude": 38.766032, "longitude": -9.108638, "type": "street", "name": "Rua C\u00e2ndido de Oliveira", "number": null, "postal_code": null, "street": "Rua C\u00e2ndido de Oliveira", "confidence": 0.8, "region": "Lisboa", "region_code": "LI", "county": null, "locality": null, "administrative_area": null, "neighbourhood": "Olivais Sul", "country": "Portugal", "country_code": "PRT", "continent": "Europe", "label": "Rua C\u00e2ndido de Oliveira, Portugal"}]}, {"price": 1350000, "address": "S%C3%A3o%20Mamede%2C%20Santo%20Ant%C3%B3nio", "id": "30620309", "size": 320, "url": "https://www.idealista.pt/en/imovel/30620309/", "created": "31-07-2020 00:12:48", "geo": [{"latitude": 38.72023, "longitude": -9.15298, "type": "locality", "name": "S\u00e3o Mamede", "number": null, "postal_code": null, "street": null, "confidence": 1, "region": "Lisboa", "region_code": "LI", "county": null, "locality": "S\u00e3o Mamede", "administrative_area": null, "neighbourhood": null, "country": "Portugal", "country_code": "PRT", "continent": "Europe", "label": "S\u00e3o Mamede, Portugal"}, {"latitude": 38.719568, "longitude": -9.1518, "type": "neighbourhood", "name": "Sao Mamede", "number": null, "postal_code": null, "street": null, "confidence": 1, "region": "Lisboa", "region_code": "LI", "county": null, "locality": null, "administrative_area": null, "neighbourhood": "Sao Mamede", "country": "Portugal", "country_code": "PRT", "continent": "Europe", "label": "Sao Mamede, Portugal"}, {"latitude": 38.972112, "longitude": -9.22862, "type": "venue", "name": "S\u00e3o Mamede", "number": null, "postal_code": null, "street": null, "confidence": 1, "region": "Lisboa", "region_code": "LI", "county": null, "locality": null, "administrative_area": null, "neighbourhood": null, "country": "Portugal", "country_code": "PRT", "continent": "Europe", "label": "S\u00e3o Mamede, Portugal"}, {"latitude": 38.7033, "longitude": -9.39583, "type": "venue", "name": "Sao Mamede", "number": null, "postal_code": null, "street": null, "confidence": 1, "region": "Lisboa", "region_code": "LI", "county": null, "locality": null, "administrative_area": null, "neighbourhood": null, "country": "Portugal", "country_code": "PRT", "continent": "Europe", "label": "Sao Mamede, Portugal"}, {"latitude": 38.7125, "longitude": -9.14306, "type": "neighbourhood", "name": "Chiado", "number": null, "postal_code": null, "street": null, "confidence": 1, "region": "Lisboa", "region_code": "LI", "county": null, "locality": null, "administrative_area": null, "neighbourhood": "Chiado", "country": "Portugal", "country_code": "PRT", "continent": "Europe", "label": "Chiado, Portugal"}, {"latitude": 38.703285, "longitude": -9.395753, "type": "venue", "name": "Hotel S\u00e3o Mamede", "number": "7105", "postal_code": "2765-607", "street": "Avenida Marginal", "confidence": 1, "region": "Lisboa", "region_code": "LI", "county": null, "locality": null, "administrative_area": null, "neighbourhood": null, "country": "Portugal", "country_code": "PRT", "continent": "Europe", "label": "Hotel S\u00e3o Mamede, Portugal"}, {"latitude": 38.836497, "longitude": -9.435652, "type": "street", "name": "Estrada de S\u00e3o Mamede", "number": null, "postal_code": null, "street": "Estrada de S\u00e3o Mamede", "confidence": 1, "region": "Lisboa", "region_code": "LI", "county": null, "locality": null, "administrative_area": null, "neighbourhood": null, "country": "Portugal", "country_code": "PRT", "continent": "Europe", "label": "Estrada de S\u00e3o Mamede, Portugal"}, {"latitude": 38.718878, "longitude": -9.152163, "type": "venue", "name": "Igreja de S\u00e3o Mamede", "number": null, "postal_code": null, "street": null, "confidence": 1, "region": "Lisboa", "region_code": "LI", "county": null, "locality": null, "administrative_area": null, "neighbourhood": "Rato", "country": "Portugal", "country_code": "PRT", "continent": "Europe", "label": "Igreja de S\u00e3o Mamede, Portugal"}, {"latitude": 38.718364, "longitude": -9.152675, "type": "venue", "name": "Casa de S\u00e3o Mamede", "number": "159", "postal_code": "1250-100", "street": "Rua da Escola Polit\u00e9cnica", "confidence": 1, "region": "Lisboa", "region_code": "LI", "county": null, "locality": null, "administrative_area": null, "neighbourhood": "Rato", "country": "Portugal", "country_code": "PRT", "continent": "Europe", "label": "Casa de S\u00e3o Mamede, Portugal"}, {"latitude": 38.710952, "longitude": -9.133888, "type": "street", "name": "Rua de S\u00e3o Mamede", "number": null, "postal_code": null, "street": "Rua de S\u00e3o Mamede", "confidence": 1, "region": "Lisboa", "region_code": "LI", "county": null, "locality": null, "administrative_area": null, "neighbourhood": "Castelo", "country": "Portugal", "country_code": "PRT", "continent": "Europe", "label": "Rua de S\u00e3o Mamede, Portugal"}]}, {"price": 385000, "address": "Santa%20Engr%C3%A1cia%2C%20S%C3%A3o%20Vicente", "id": "30619850", "size": 100, "url": "https://www.idealista.pt/en/imovel/30619850/", "created": "31-07-2020 00:12:48", "geo": [{"latitude": 38.71833, "longitude": -9.12257, "type": "locality", "name": "Santa Engr\u00e1cia", "number": null, "postal_code": null, "street": null, "confidence": 1, "region": "Lisboa", "region_code": "LI", "county": null, "locality": "Santa Engr\u00e1cia", "administrative_area": null, "neighbourhood": null, "country": "Portugal", "country_code": "PRT", "continent": "Europe", "label": "Santa Engr\u00e1cia, Portugal"}, {"latitude": 38.719797, "longitude": -9.12093, "type": "neighbourhood", "name": "Santa Engracia", "number": null, "postal_code": null, "street": null, "confidence": 1, "region": "Lisboa", "region_code": "LI", "county": null, "locality": null, "administrative_area": null, "neighbourhood": "Santa Engracia", "country": "Portugal", "country_code": "PRT", "continent": "Europe", "label": "Santa Engracia, Portugal"}, {"latitude": 38.718029, "longitude": -9.124157, "type": "street", "name": "Rua de Santa Engr\u00e1cia", "number": null, "postal_code": null, "street": "Rua de Santa Engr\u00e1cia", "confidence": 1, "region": "Lisboa", "region_code": "LI", "county": null, "locality": null, "administrative_area": null, "neighbourhood": "Bairro Lopes", "country": "Portugal", "country_code": "PRT", "continent": "Europe", "label": "Rua de Santa Engr\u00e1cia, Portugal"}, {"latitude": 38.715, "longitude": -9.125, "type": "venue", "name": "Church of Santa Engr\u00e1cia", "number": null, "postal_code": null, "street": null, "confidence": 1, "region": "Lisboa", "region_code": "LI", "county": null, "locality": null, "administrative_area": null, "neighbourhood": "Santa Apolonia", "country": "Portugal", "country_code": "PRT", "continent": "Europe", "label": "Church of Santa Engr\u00e1cia, Portugal"}, {"latitude": 38.719207, "longitude": -9.119652, "type": "venue", "name": "Igreja Paroquial de Santa Engr\u00e1cia", "number": null, "postal_code": null, "street": "Cal\u00e7ada dos Barbadinhos", "confidence": 1, "region": "Lisboa", "region_code": "LI", "county": null, "locality": null, "administrative_area": null, "neighbourhood": "Caminhos de Ferro", "country": "Portugal", "country_code": "PRT", "continent": "Europe", "label": "Igreja Paroquial de Santa Engr\u00e1cia, Portugal"}, {"latitude": 38.718169, "longitude": -9.130056, "type": "venue", "name": "Santander", "number": null, "postal_code": null, "street": null, "confidence": 1, "region": "Lisboa", "region_code": "LI", "county": null, "locality": null, "administrative_area": null, "neighbourhood": "Mouraria", "country": "Portugal", "country_code": "PRT", "continent": "Europe", "label": "Santander, Portugal"}, {"latitude": 38.705763, "longitude": -9.398738, "type": "venue", "name": "Santander", "number": "233", "postal_code": null, "street": "Avenida Aida", "confidence": 1, "region": "Lisboa", "region_code": "LI", "county": null, "locality": null, "administrative_area": null, "neighbourhood": null, "country": "Portugal", "country_code": "PRT", "continent": "Europe", "label": "Santander, Portugal"}, {"latitude": 38.704568, "longitude": -9.399385, "type": "venue", "name": "Santander", "number": "101", "postal_code": null, "street": "Avenida Aida", "confidence": 1, "region": "Lisboa", "region_code": "LI", "county": null, "locality": null, "administrative_area": null, "neighbourhood": null, "country": "Portugal", "country_code": "PRT", "continent": "Europe", "label": "Santander, Portugal"}, {"latitude": 38.73946, "longitude": -9.394285, "type": "venue", "name": "Santander", "number": null, "postal_code": null, "street": "Avenida da Rep\u00fablica", "confidence": 1, "region": "Lisboa", "region_code": "LI", "county": null, "locality": null, "administrative_area": null, "neighbourhood": null, "country": "Portugal", "country_code": "PRT", "continent": "Europe", "label": "Santander, Portugal"}, {"latitude": 38.750096, "longitude": -9.195576, "type": "venue", "name": "Escola Pedro Santar\u00e9m", "number": null, "postal_code": null, "street": null, "confidence": 1, "region": "Lisboa", "region_code": "LI", "county": null, "locality": null, "administrative_area": null, "neighbourhood": "Benfica", "country": "Portugal", "country_code": "PRT", "continent": "Europe", "label": "Escola Pedro Santar\u00e9m, Portugal"}]}, {"price": 2400000, "address": "Parque%20das%20Na%C3%A7%C3%B5es%2C%20Lisboa", "id": "30247992", "size": 763, "url": "https://www.idealista.pt/en/imovel/30247992/", "created": "31-07-2020 00:12:48", "geo": [{"latitude": 38.793547, "longitude": -9.097822, "type": "venue", "name": "Parque das Na\u00e7\u00f5es Norte", "number": null, "postal_code": null, "street": null, "confidence": 1, "region": "Lisboa", "region_code": "LI", "county": null, "locality": null, "administrative_area": null, "neighbourhood": null, "country": "Portugal", "country_code": "PRT", "continent": "Europe", "label": "Parque das Na\u00e7\u00f5es Norte, Portugal"}, {"latitude": 38.765054, "longitude": -9.100012, "type": "neighbourhood", "name": "Parque das Nacoes", "number": null, "postal_code": null, "street": null, "confidence": 1, "region": "Lisboa", "region_code": "LI", "county": null, "locality": null, "administrative_area": null, "neighbourhood": "Parque das Nacoes", "country": "Portugal", "country_code": "PRT", "continent": "Europe", "label": "Parque das Nacoes, Portugal"}, {"latitude": 38.755394, "longitude": -9.096865, "type": "venue", "name": "Parque das Na\u00e7\u00f5es Sul", "number": null, "postal_code": null, "street": null, "confidence": 1, "region": "Lisboa", "region_code": "LI", "county": null, "locality": null, "administrative_area": null, "neighbourhood": "Bra\u00e7o de Prata", "country": "Portugal", "country_code": "PRT", "continent": "Europe", "label": "Parque das Na\u00e7\u00f5es Sul, Portugal"}, {"latitude": 38.76908, "longitude": -9.09632, "type": "locality", "name": "Parque das Na\u00e7\u00f5es", "number": null, "postal_code": null, "street": null, "confidence": 1, "region": "Lisboa", "region_code": "LI", "county": null, "locality": "Parque das Na\u00e7\u00f5es", "administrative_area": null, "neighbourhood": null, "country": "Portugal", "country_code": "PRT", "continent": "Europe", "label": "Parque das Na\u00e7\u00f5es, Portugal"}, {"latitude": 38.767726, "longitude": -9.092334, "type": "venue", "name": "Sakura (Parque das Na\u00e7\u00f5es)", "number": "2.25.01", "postal_code": null, "street": "Passeio das T\u00e1gides", "confidence": 1, "region": "Lisboa", "region_code": "LI", "county": null, "locality": null, "administrative_area": null, "neighbourhood": "Chelas", "country": "Portugal", "country_code": "PRT", "continent": "Europe", "label": "Sakura (Parque das Na\u00e7\u00f5es), Portugal"}, {"latitude": 38.778736, "longitude": -9.094555, "type": "venue", "name": "Farm\u00e1cia Parque das Na\u00e7\u00f5es", "number": "6A R/C (antigo 4.28.01.H)", "postal_code": "1990-237", "street": "Jardim dos Jacarand\u00e1s", "confidence": 1, "region": "Lisboa", "region_code": "LI", "county": null, "locality": null, "administrative_area": null, "neighbourhood": null, "country": "Portugal", "country_code": "PRT", "continent": "Europe", "label": "Farm\u00e1cia Parque das Na\u00e7\u00f5es, Portugal"}, {"latitude": 38.774359, "longitude": -9.097504, "type": "venue", "name": "Holmes Place Parque das Na\u00e7\u00f5es", "number": "lote 1.19.03/C", "postal_code": "1990-098", "street": "Avenida Dom Jo\u00e3o II", "confidence": 1, "region": "Lisboa", "region_code": "LI", "county": null, "locality": null, "administrative_area": null, "neighbourhood": null, "country": "Portugal", "country_code": "PRT", "continent": "Europe", "label": "Holmes Place Parque das Na\u00e7\u00f5es, Portugal"}, {"latitude": 38.77109, "longitude": -9.09685, "type": "venue", "name": "Ibis Lisboa Parque Das Nacoes", "number": null, "postal_code": null, "street": null, "confidence": 1, "region": "Lisboa", "region_code": "LI", "county": null, "locality": null, "administrative_area": null, "neighbourhood": "Olivais Sul", "country": "Portugal", "country_code": "PRT", "continent": "Europe", "label": "Ibis Lisboa Parque Das Nacoes, Portugal"}, {"latitude": 38.756647, "longitude": -9.097856, "type": "venue", "name": "Resid\u00eancia Montepio Parque das Na\u00e7\u00f5es", "number": null, "postal_code": null, "street": null, "confidence": 1, "region": "Lisboa", "region_code": "LI", "county": null, "locality": null, "administrative_area": null, "neighbourhood": "Bra\u00e7o de Prata", "country": "Portugal", "country_code": "PRT", "continent": "Europe", "label": "Resid\u00eancia Montepio Parque das Na\u00e7\u00f5es, Portugal"}, {"latitude": 38.7836, "longitude": -9.096479, "type": "street", "name": "Passeio das G\u00e1veas ao Parque das Na\u00e7\u00f5es", "number": null, "postal_code": null, "street": "Passeio das G\u00e1veas ao Parque das Na\u00e7\u00f5es", "confidence": 1, "region": "Lisboa", "region_code": "LI", "county": null, "locality": null, "administrative_area": null, "neighbourhood": null, "country": "Portugal", "country_code": "PRT", "continent": "Europe", "label": "Passeio das G\u00e1veas ao Parque das Na\u00e7\u00f5es, Portugal"}]}, {"price": 549900, "address": "rua%20Carrilho%20Videira%2C%20Centro%2C%20Penha%20de%20Fran%C3%A7a", "id": "30623238", "size": 139, "url": "https://www.idealista.pt/en/imovel/30623238/", "created": "31-07-2020 00:12:48", "geo": [{"latitude": 38.731798, "longitude": -9.129194, "type": "street", "name": "Rua Carrilho Videira", "number": null, "postal_code": null, "street": "Rua Carrilho Videira", "confidence": 1, "region": "Lisboa", "region_code": "LI", "county": null, "locality": null, "administrative_area": null, "neighbourhood": "Alto do Pina", "country": "Portugal", "country_code": "PRT", "continent": "Europe", "label": "Rua Carrilho Videira, Portugal"}]}, {"price": 650000, "address": "rua%20Gil%20Vicente%2C%20Alc%C3%A2ntara%2C%20Lisboa", "id": "30622614", "size": 132, "url": "https://www.idealista.pt/en/imovel/30622614/", "created": "31-07-2020 00:12:48", "geo": [{"latitude": 38.818713, "longitude": -9.456892, "type": "street", "name": "Rua Gil Vicente", "number": null, "postal_code": null, "street": "Rua Gil Vicente", "confidence": 1, "region": "Lisboa", "region_code": "LI", "county": null, "locality": null, "administrative_area": null, "neighbourhood": null, "country": "Portugal", "country_code": "PRT", "continent": "Europe", "label": "Rua Gil Vicente, Portugal"}, {"latitude": 38.699463, "longitude": -9.327711, "type": "street", "name": "Rua Gil Vicente", "number": null, "postal_code": null, "street": "Rua Gil Vicente", "confidence": 1, "region": "Lisboa", "region_code": "LI", "county": null, "locality": null, "administrative_area": null, "neighbourhood": "Rato", "country": "Portugal", "country_code": "PRT", "continent": "Europe", "label": "Rua Gil Vicente, Portugal"}, {"latitude": 38.704117, "longitude": -9.183922, "type": "street", "name": "Rua Gil Vicente", "number": null, "postal_code": null, "street": "Rua Gil Vicente", "confidence": 1, "region": "Lisboa", "region_code": "LI", "county": null, "locality": null, "administrative_area": null, "neighbourhood": "Bairro do Alto da Ajuda", "country": "Portugal", "country_code": "PRT", "continent": "Europe", "label": "Rua Gil Vicente, Portugal"}, {"latitude": 38.787904, "longitude": -9.183872, "type": "street", "name": "Rua Gil Vicente", "number": null, "postal_code": null, "street": "Rua Gil Vicente", "confidence": 1, "region": "Lisboa", "region_code": "LI", "county": null, "locality": null, "administrative_area": null, "neighbourhood": "Lumiar", "country": "Portugal", "country_code": "PRT", "continent": "Europe", "label": "Rua Gil Vicente, Portugal"}, {"latitude": 38.751804, "longitude": -9.152244, "type": "venue", "name": "Gil Vicente", "number": null, "postal_code": null, "street": null, "confidence": 1, "region": "Lisboa", "region_code": "LI", "county": null, "locality": null, "administrative_area": null, "neighbourhood": "Cidade Universitaria", "country": "Portugal", "country_code": "PRT", "continent": "Europe", "label": "Gil Vicente, Portugal"}, {"latitude": 38.695402, "longitude": -9.300376, "type": "venue", "name": "Gil Vicente", "number": null, "postal_code": null, "street": null, "confidence": 1, "region": "Lisboa", "region_code": "LI", "county": null, "locality": null, "administrative_area": null, "neighbourhood": null, "country": "Portugal", "country_code": "PRT", "continent": "Europe", "label": "Gil Vicente, Portugal"}, {"latitude": 38.727052, "longitude": -9.240208, "type": "street", "name": "Praceta Gil Vicente", "number": null, "postal_code": null, "street": "Praceta Gil Vicente", "confidence": 1, "region": "Lisboa", "region_code": "LI", "county": null, "locality": null, "administrative_area": null, "neighbourhood": null, "country": "Portugal", "country_code": "PRT", "continent": "Europe", "label": "Praceta Gil Vicente, Portugal"}, {"latitude": 38.794609, "longitude": -9.119126, "type": "street", "name": "Pra\u00e7a Gil Vicente", "number": null, "postal_code": null, "street": "Pra\u00e7a Gil Vicente", "confidence": 1, "region": "Lisboa", "region_code": "LI", "county": null, "locality": null, "administrative_area": null, "neighbourhood": null, "country": "Portugal", "country_code": "PRT", "continent": "Europe", "label": "Pra\u00e7a Gil Vicente, Portugal"}, {"latitude": 38.716187, "longitude": -9.127464, "type": "venue", "name": "Escola Secund\u00e1ria Gil Vicente", "number": null, "postal_code": null, "street": null, "confidence": 1, "region": "Lisboa", "region_code": "LI", "county": null, "locality": null, "administrative_area": null, "neighbourhood": "Mouraria", "country": "Portugal", "country_code": "PRT", "continent": "Europe", "label": "Escola Secund\u00e1ria Gil Vicente, Portugal"}, {"latitude": 38.756978, "longitude": -9.236886, "type": "street", "name": "Travessa Gil Vicente", "number": null, "postal_code": null, "street": "Travessa Gil Vicente", "confidence": 1, "region": "Lisboa", "region_code": "LI", "county": null, "locality": null, "administrative_area": null, "neighbourhood": null, "country": "Portugal", "country_code": "PRT", "continent": "Europe", "label": "Travessa Gil Vicente, Portugal"}]}, {"price": 1090000, "address": "S%C3%A3o%20Sebasti%C3%A3o%20da%20Pedreira%2C%20Avenidas%20Novas", "id": "30624571", "size": 247, "url": "https://www.idealista.pt/en/imovel/30624571/", "created": "31-07-2020 00:12:48", "geo": [{"latitude": 38.73119, "longitude": -9.15241, "type": "locality", "name": "S\u00e3o Sebasti\u00e3o da Pedreira", "number": null, "postal_code": null, "street": null, "confidence": 1, "region": "Lisboa", "region_code": "LI", "county": null, "locality": "S\u00e3o Sebasti\u00e3o da Pedreira", "administrative_area": null, "neighbourhood": null, "country": "Portugal", "country_code": "PRT", "continent": "Europe", "label": "S\u00e3o Sebasti\u00e3o da Pedreira, Portugal"}, {"latitude": 38.7344, "longitude": -9.15389, "type": "neighbourhood", "name": "S\u00e3o Sebasti\u00e3o da Pedreira", "number": null, "postal_code": null, "street": null, "confidence": 1, "region": "Lisboa", "region_code": "LI", "county": null, "locality": null, "administrative_area": null, "neighbourhood": "Rego", "country": "Portugal", "country_code": "PRT", "continent": "Europe", "label": "S\u00e3o Sebasti\u00e3o da Pedreira, Portugal"}, {"latitude": 38.730276, "longitude": -9.151443, "type": "neighbourhood", "name": "Sao Sebastiao da Pedreira", "number": null, "postal_code": null, "street": null, "confidence": 1, "region": "Lisboa", "region_code": "LI", "county": null, "locality": null, "administrative_area": null, "neighbourhood": "Sao Sebastiao da Pedreira", "country": "Portugal", "country_code": "PRT", "continent": "Europe", "label": "Sao Sebastiao da Pedreira, Portugal"}, {"latitude": 38.730963, "longitude": -9.149892, "type": "venue", "name": "Escola B\u00e1sica 1 S\u00e3o Sebasti\u00e3o da Pedreira", "number": "158", "postal_code": null, "street": "Rua de S\u00e3o Sebasti\u00e3o da Pedreira", "confidence": 1, "region": "Lisboa", "region_code": "LI", "county": null, "locality": null, "administrative_area": null, "neighbourhood": "Saldanha", "country": "Portugal", "country_code": "PRT", "continent": "Europe", "label": "Escola B\u00e1sica 1 S\u00e3o Sebasti\u00e3o da Pedreira, Portugal"}, {"latitude": 38.733509, "longitude": -9.152172, "type": "street", "name": "Largo de S\u00e3o Sebasti\u00e3o da Pedreira", "number": null, "postal_code": null, "street": "Largo de S\u00e3o Sebasti\u00e3o da Pedreira", "confidence": 1, "region": "Lisboa", "region_code": "LI", "county": null, "locality": null, "administrative_area": null, "neighbourhood": "Saldanha", "country": "Portugal", "country_code": "PRT", "continent": "Europe", "label": "Largo de S\u00e3o Sebasti\u00e3o da Pedreira, Portugal"}, {"latitude": 38.731131, "longitude": -9.150443, "type": "venue", "name": "Chafariz de S\u00e3o Sebasti\u00e3o da Pedreira", "number": null, "postal_code": null, "street": "Rua de S\u00e3o Sebasti\u00e3o da Pedreira", "confidence": 1, "region": "Lisboa", "region_code": "LI", "county": null, "locality": null, "administrative_area": null, "neighbourhood": "Saldanha", "country": "Portugal", "country_code": "PRT", "continent": "Europe", "label": "Chafariz de S\u00e3o Sebasti\u00e3o da Pedreira, Portugal"}, {"latitude": 38.730361, "longitude": -9.149623, "type": "street", "name": "Rua de S\u00e3o Sebasti\u00e3o da Pedreira", "number": null, "postal_code": null, "street": "Rua de S\u00e3o Sebasti\u00e3o da Pedreira", "confidence": 1, "region": "Lisboa", "region_code": "LI", "county": null, "locality": null, "administrative_area": null, "neighbourhood": "Saldanha", "country": "Portugal", "country_code": "PRT", "continent": "Europe", "label": "Rua de S\u00e3o Sebasti\u00e3o da Pedreira, Portugal"}, {"latitude": 38.732426, "longitude": -9.151392, "type": "venue", "name": "Igreja de S\u00e3o Sebasti\u00e3o da Pedreira", "number": null, "postal_code": "1050-231", "street": "Largo de S\u00e3o Sebasti\u00e3o da Pedreira", "confidence": 1, "region": "Lisboa", "region_code": "LI", "county": null, "locality": null, "administrative_area": null, "neighbourhood": "Saldanha", "country": "Portugal", "country_code": "PRT", "continent": "Europe", "label": "Igreja de S\u00e3o Sebasti\u00e3o da Pedreira, Portugal"}, {"latitude": 38.734513, "longitude": -9.153365, "type": "venue", "name": "S\u00e3o Sebasti\u00e3o", "number": null, "postal_code": null, "street": null, "confidence": 1, "region": "Lisboa", "region_code": "LI", "county": null, "locality": null, "administrative_area": null, "neighbourhood": "Rego", "country": "Portugal", "country_code": "PRT", "continent": "Europe", "label": "S\u00e3o Sebasti\u00e3o, Portugal"}, {"latitude": 38.85085, "longitude": -9.38031, "type": "locality", "name": "S\u00e3o Sebasti\u00e3o", "number": null, "postal_code": null, "street": null, "confidence": 1, "region": "Lisboa", "region_code": "LI", "county": null, "locality": "S\u00e3o Sebasti\u00e3o", "administrative_area": null, "neighbourhood": null, "country": "Portugal", "country_code": "PRT", "continent": "Europe", "label": "S\u00e3o Sebasti\u00e3o, Portugal"}]}, {"price": 1398000, "address": "Saldanha%20-%20Picoas%2C%20S%C3%A3o%20Jorge%20de%20Arroios%2C%20Arroios", "id": "30231156", "size": 222, "url": "https://www.idealista.pt/en/imovel/30231156/", "created": "31-07-2020 00:12:48", "geo": [{"latitude": 38.731028, "longitude": -9.146045, "type": "venue", "name": "Picoas", "number": null, "postal_code": null, "street": null, "confidence": 0.8, "region": "Lisboa", "region_code": "LI", "county": null, "locality": null, "administrative_area": null, "neighbourhood": "Estefania", "country": "Portugal", "country_code": "PRT", "continent": "Europe", "label": "Picoas, Portugal"}, {"latitude": 38.730074, "longitude": -9.147379, "type": "venue", "name": "Picoas", "number": null, "postal_code": null, "street": null, "confidence": 0.8, "region": "Lisboa", "region_code": "LI", "county": null, "locality": null, "administrative_area": null, "neighbourhood": "Saldanha", "country": "Portugal", "country_code": "PRT", "continent": "Europe", "label": "Picoas, Portugal"}]}, {"price": 935000, "address": "Centro%20-%20Nova%20Campolide%2C%20Campolide", "id": "30624422", "size": 220, "url": "https://www.idealista.pt/en/imovel/30624422/", "created": "31-07-2020 00:12:48", "geo": [{"latitude": 38.733004, "longitude": -9.160929, "type": "venue", "name": "Universidade Nova de Lisboa - Campus de Campolide", "number": null, "postal_code": null, "street": null, "confidence": 1, "region": "Lisboa", "region_code": "LI", "county": null, "locality": null, "administrative_area": null, "neighbourhood": "Campolide", "country": "Portugal", "country_code": "PRT", "continent": "Europe", "label": "Universidade Nova de Lisboa - Campus de Campolide, Portugal"}, {"latitude": 38.753468, "longitude": -9.213547, "type": "venue", "name": "Centro de Sa\u00fade da Venda Nova - Centro Diagn\u00f3stico Pneumol\u00f3gico", "number": null, "postal_code": null, "street": null, "confidence": 1, "region": "Lisboa", "region_code": "LI", "county": null, "locality": null, "administrative_area": null, "neighbourhood": null, "country": "Portugal", "country_code": "PRT", "continent": "Europe", "label": "Centro de Sa\u00fade da Venda Nova - Centro Diagn\u00f3stico Pneumol\u00f3gico, Portugal"}]}, {"price": 525000, "address": "Prazeres%2C%20Estrela", "id": "30622137", "size": 110, "url": "https://www.idealista.pt/en/imovel/30622137/", "created": "31-07-2020 00:12:48", "geo": [{"latitude": 38.70685, "longitude": -9.16819, "type": "locality", "name": "Prazeres", "number": null, "postal_code": null, "street": null, "confidence": 1, "region": "Lisboa", "region_code": "LI", "county": null, "locality": "Prazeres", "administrative_area": null, "neighbourhood": null, "country": "Portugal", "country_code": "PRT", "continent": "Europe", "label": "Prazeres, Portugal"}, {"latitude": 38.706187, "longitude": -9.169249, "type": "neighbourhood", "name": "Prazeres", "number": null, "postal_code": null, "street": null, "confidence": 1, "region": "Lisboa", "region_code": "LI", "county": null, "locality": null, "administrative_area": null, "neighbourhood": "Prazeres", "country": "Portugal", "country_code": "PRT", "continent": "Europe", "label": "Prazeres, Portugal"}, {"latitude": 38.7083, "longitude": -9.16833, "type": "neighbourhood", "name": "Prazeres", "number": null, "postal_code": null, "street": null, "confidence": 1, "region": "Lisboa", "region_code": "LI", "county": null, "locality": null, "administrative_area": null, "neighbourhood": "Lapa", "country": "Portugal", "country_code": "PRT", "continent": "Europe", "label": "Prazeres, Portugal"}, {"latitude": 38.714335, "longitude": -9.169918, "type": "venue", "name": "Campo de Ourique (Prazeres)", "number": null, "postal_code": null, "street": null, "confidence": 1, "region": "Lisboa", "region_code": "LI", "county": null, "locality": null, "administrative_area": null, "neighbourhood": "Campo de Ourique", "country": "Portugal", "country_code": "PRT", "continent": "Europe", "label": "Campo de Ourique (Prazeres), Portugal"}, {"latitude": 38.690165, "longitude": -9.353597, "type": "venue", "name": "Mercearia Prazeres", "number": "99", "postal_code": null, "street": "Rua Jos\u00e9 Relvas", "confidence": 1, "region": "Lisboa", "region_code": "LI", "county": null, "locality": null, "administrative_area": null, "neighbourhood": null, "country": "Portugal", "country_code": "PRT", "continent": "Europe", "label": "Mercearia Prazeres, Portugal"}, {"latitude": 38.721327, "longitude": -9.119821, "type": "venue", "name": "Escola Patr\u00edcio Prazeres", "number": null, "postal_code": null, "street": null, "confidence": 1, "region": "Lisboa", "region_code": "LI", "county": null, "locality": null, "administrative_area": null, "neighbourhood": "Bairro Lopes", "country": "Portugal", "country_code": "PRT", "continent": "Europe", "label": "Escola Patr\u00edcio Prazeres, Portugal"}, {"latitude": 38.829464, "longitude": -9.100534, "type": "street", "name": "Rua dos Prazeres", "number": null, "postal_code": null, "street": "Rua dos Prazeres", "confidence": 1, "region": "Lisboa", "region_code": "LI", "county": null, "locality": null, "administrative_area": null, "neighbourhood": null, "country": "Portugal", "country_code": "PRT", "continent": "Europe", "label": "Rua dos Prazeres, Portugal"}, {"latitude": 38.714219, "longitude": -9.169155, "type": "street", "name": "Parada dos Prazeres", "number": null, "postal_code": null, "street": "Parada dos Prazeres", "confidence": 1, "region": "Lisboa", "region_code": "LI", "county": null, "locality": null, "administrative_area": null, "neighbourhood": "Campo de Ourique", "country": "Portugal", "country_code": "PRT", "continent": "Europe", "label": "Parada dos Prazeres, Portugal"}, {"latitude": 38.71457, "longitude": -9.166459, "type": "street", "name": "Travessa dos Prazeres", "number": null, "postal_code": null, "street": "Travessa dos Prazeres", "confidence": 1, "region": "Lisboa", "region_code": "LI", "county": null, "locality": null, "administrative_area": null, "neighbourhood": "Campo de Ourique", "country": "Portugal", "country_code": "PRT", "continent": "Europe", "label": "Travessa dos Prazeres, Portugal"}, {"latitude": 38.690481, "longitude": -9.335227, "type": "venue", "name": "P\u00e1teo dos Prazeres", "number": "3", "postal_code": "2775", "street": "Pra\u00e7a Da Rep\u00fablica", "confidence": 1, "region": "Lisboa", "region_code": "LI", "county": null, "locality": null, "administrative_area": null, "neighbourhood": "Rato", "country": "Portugal", "country_code": "PRT", "continent": "Europe", "label": "P\u00e1teo dos Prazeres, Portugal"}]}, {"price": 899900, "address": "Alvalade%2C%20Alvalade", "id": "30621843", "size": 218, "url": "https://www.idealista.pt/en/imovel/30621843/", "created": "31-07-2020 00:12:48", "geo": [{"latitude": 38.75328, "longitude": -9.14397, "type": "locality", "name": "Alvalade", "number": null, "postal_code": null, "street": null, "confidence": 1, "region": "Lisboa", "region_code": "LI", "county": null, "locality": "Alvalade", "administrative_area": null, "neighbourhood": null, "country": "Portugal", "country_code": "PRT", "continent": "Europe", "label": "Alvalade, Portugal"}, {"latitude": 38.74694, "longitude": -9.13932, "type": "locality", "name": "Alvalade", "number": null, "postal_code": null, "street": null, "confidence": 1, "region": "Lisboa", "region_code": "LI", "county": null, "locality": "Alvalade", "administrative_area": null, "neighbourhood": null, "country": "Portugal", "country_code": "PRT", "continent": "Europe", "label": "Alvalade, Portugal"}, {"latitude": 38.74858, "longitude": -9.140362, "type": "neighbourhood", "name": "Alvalade", "number": null, "postal_code": null, "street": null, "confidence": 1, "region": "Lisboa", "region_code": "LI", "county": null, "locality": null, "administrative_area": null, "neighbourhood": "Alvalade", "country": "Portugal", "country_code": "PRT", "continent": "Europe", "label": "Alvalade, Portugal"}, {"latitude": 38.753341, "longitude": -9.143261, "type": "venue", "name": "Pra\u00e7a de Alvalade", "number": null, "postal_code": null, "street": null, "confidence": 1, "region": "Lisboa", "region_code": "LI", "county": null, "locality": null, "administrative_area": null, "neighbourhood": "Alvalade", "country": "Portugal", "country_code": "PRT", "continent": "Europe", "label": "Pra\u00e7a de Alvalade, Portugal"}, {"latitude": 38.75667, "longitude": -9.141667, "type": "venue", "name": "Espazo Alvalade", "number": "5", "postal_code": "1700-248", "street": "Rua de Jo\u00e3o Saraiva", "confidence": 1, "region": "Lisboa", "region_code": "LI", "county": null, "locality": null, "administrative_area": null, "neighbourhood": "Alvalade", "country": "Portugal", "country_code": "PRT", "continent": "Europe", "label": "Espazo Alvalade, Portugal"}, {"latitude": 38.754383, "longitude": -9.144321, "type": "venue", "name": "Cinemacity Alvalade", "number": null, "postal_code": null, "street": null, "confidence": 1, "region": "Lisboa", "region_code": "LI", "county": null, "locality": null, "administrative_area": null, "neighbourhood": "Alvalade", "country": "Portugal", "country_code": "PRT", "continent": "Europe", "label": "Cinemacity Alvalade, Portugal"}, {"latitude": 38.754155, "longitude": -9.141304, "type": "venue", "name": "Farm\u00e1cia Alvalade", "number": "18 A", "postal_code": "1700-237 S\u00e3o Jo\u00e3o de Brito", "street": "Avenida da Igreja", "confidence": 1, "region": "Lisboa", "region_code": "LI", "county": null, "locality": null, "administrative_area": null, "neighbourhood": "Alvalade", "country": "Portugal", "country_code": "PRT", "continent": "Europe", "label": "Farm\u00e1cia Alvalade, Portugal"}, {"latitude": 38.755127, "longitude": -9.139415, "type": "venue", "name": "Alvalade II Guest House", "number": null, "postal_code": null, "street": null, "confidence": 1, "region": "Lisboa", "region_code": "LI", "county": null, "locality": null, "administrative_area": null, "neighbourhood": "Alvalade", "country": "Portugal", "country_code": "PRT", "continent": "Europe", "label": "Alvalade II Guest House, Portugal"}, {"latitude": 38.75684, "longitude": -9.139748, "type": "venue", "name": "Bombeiros de Alvalade", "number": null, "postal_code": null, "street": null, "confidence": 1, "region": "Lisboa", "region_code": "LI", "county": null, "locality": null, "administrative_area": null, "neighbourhood": "Alvalade", "country": "Portugal", "country_code": "PRT", "continent": "Europe", "label": "Bombeiros de Alvalade, Portugal"}, {"latitude": 38.755499, "longitude": -9.14017, "type": "venue", "name": "Mercado Alvalade Norte", "number": null, "postal_code": null, "street": null, "confidence": 1, "region": "Lisboa", "region_code": "LI", "county": null, "locality": null, "administrative_area": null, "neighbourhood": "Alvalade", "country": "Portugal", "country_code": "PRT", "continent": "Europe", "label": "Mercado Alvalade Norte, Portugal"}]}, {"price": 725000, "address": "rua%20Sousa%20Lopes%2C%20Entrecampos%2C%20Avenidas%20Novas", "id": "30624019", "size": 187, "url": "https://www.idealista.pt/en/imovel/30624019/", "created": "31-07-2020 00:12:48", "geo": [{"latitude": 38.74367, "longitude": -9.153451, "type": "street", "name": "Rua Sousa Lopes", "number": null, "postal_code": null, "street": "Rua Sousa Lopes", "confidence": 1, "region": "Lisboa", "region_code": "LI", "county": null, "locality": null, "administrative_area": null, "neighbourhood": "Entrecampos", "country": "Portugal", "country_code": "PRT", "continent": "Europe", "label": "Rua Sousa Lopes, Portugal"}, {"latitude": 38.759954, "longitude": -9.264563, "type": "street", "name": "Rua Sousa Lopes", "number": null, "postal_code": null, "street": "Rua Sousa Lopes", "confidence": 1, "region": "Lisboa", "region_code": "LI", "county": null, "locality": null, "administrative_area": null, "neighbourhood": null, "country": "Portugal", "country_code": "PRT", "continent": "Europe", "label": "Rua Sousa Lopes, Portugal"}, {"latitude": 38.752903, "longitude": -9.148806, "type": "street", "name": "Rua Afonso Lopes Vieira", "number": null, "postal_code": null, "street": "Rua Afonso Lopes Vieira", "confidence": 1, "region": "Lisboa", "region_code": "LI", "county": null, "locality": null, "administrative_area": null, "neighbourhood": "Entrecampos", "country": "Portugal", "country_code": "PRT", "continent": "Europe", "label": "Rua Afonso Lopes Vieira, Portugal"}, {"latitude": 38.746443, "longitude": -9.150314, "type": "venue", "name": "Alojamento/Resid\u00eancia Lopes", "number": null, "postal_code": null, "street": null, "confidence": 1, "region": "Lisboa", "region_code": "LI", "county": null, "locality": null, "administrative_area": null, "neighbourhood": "Entrecampos", "country": "Portugal", "country_code": "PRT", "continent": "Europe", "label": "Alojamento/Resid\u00eancia Lopes, Portugal"}, {"latitude": 38.824047, "longitude": -9.100893, "type": "street", "name": "Rua Fernando Sousa Ribeiro", "number": null, "postal_code": null, "street": "Rua Fernando Sousa Ribeiro", "confidence": 1, "region": "Lisboa", "region_code": "LI", "county": null, "locality": null, "administrative_area": null, "neighbourhood": null, "country": "Portugal", "country_code": "PRT", "continent": "Europe", "label": "Rua Fernando Sousa Ribeiro, Portugal"}, {"latitude": 38.714161, "longitude": -9.206669, "type": "street", "name": "Rua Francisco Sousa Tavares", "number": null, "postal_code": null, "street": "Rua Francisco Sousa Tavares", "confidence": 1, "region": "Lisboa", "region_code": "LI", "county": null, "locality": null, "administrative_area": null, "neighbourhood": "Caram\u00e3o", "country": "Portugal", "country_code": "PRT", "continent": "Europe", "label": "Rua Francisco Sousa Tavares, Portugal"}, {"latitude": 38.705764, "longitude": -9.330331, "type": "street", "name": "Rua Rio Sousa", "number": null, "postal_code": null, "street": "Rua Rio Sousa", "confidence": 1, "region": "Lisboa", "region_code": "LI", "county": null, "locality": null, "administrative_area": null, "neighbourhood": null, "country": "Portugal", "country_code": "PRT", "continent": "Europe", "label": "Rua Rio Sousa, Portugal"}, {"latitude": 38.862303, "longitude": -9.077276, "type": "street", "name": "Rua Amadeo Sousa Cardoso", "number": null, "postal_code": null, "street": "Rua Amadeo Sousa Cardoso", "confidence": 1, "region": "Lisboa", "region_code": "LI", "county": null, "locality": null, "administrative_area": null, "neighbourhood": null, "country": "Portugal", "country_code": "PRT", "continent": "Europe", "label": "Rua Amadeo Sousa Cardoso, Portugal"}, {"latitude": 38.716024, "longitude": -9.150153, "type": "street", "name": "Rua Cec\u00edlio de Sousa", "number": null, "postal_code": null, "street": "Rua Cec\u00edlio de Sousa", "confidence": 1, "region": "Lisboa", "region_code": "LI", "county": null, "locality": null, "administrative_area": null, "neighbourhood": "Bairro Alto", "country": "Portugal", "country_code": "PRT", "continent": "Europe", "label": "Rua Cec\u00edlio de Sousa, Portugal"}, {"latitude": 38.724176, "longitude": -9.158034, "type": "street", "name": "Rua Sousa Pinto", "number": null, "postal_code": null, "street": "Rua Sousa Pinto", "confidence": 1, "region": "Lisboa", "region_code": "LI", "county": null, "locality": null, "administrative_area": null, "neighbourhood": "Torres Amoreiras", "country": "Portugal", "country_code": "PRT", "continent": "Europe", "label": "Rua Sousa Pinto, Portugal"}]}, {"price": 590000, "address": "S%C3%A3o%20Domingos%20de%20Benfica%2C%20Lisboa", "id": "30624871", "size": 258, "url": "https://www.idealista.pt/en/imovel/30624871/", "created": "31-07-2020 00:12:48", "geo": [{"latitude": 38.74603, "longitude": -9.17384, "type": "locality", "name": "S\u00e3o Domingos de Benfica", "number": null, "postal_code": null, "street": null, "confidence": 0.6, "region": "Lisboa", "region_code": "LI", "county": null, "locality": "S\u00e3o Domingos de Benfica", "administrative_area": null, "neighbourhood": null, "country": "Portugal", "country_code": "PRT", "continent": "Europe", "label": "S\u00e3o Domingos de Benfica, Portugal"}, {"latitude": 38.74804, "longitude": -9.17662, "type": "neighbourhood", "name": "Sao Domingos de Benfica", "number": null, "postal_code": null, "street": null, "confidence": 0.6, "region": "Lisboa", "region_code": "LI", "county": null, "locality": null, "administrative_area": null, "neighbourhood": "Sao Domingos de Benfica", "country": "Portugal", "country_code": "PRT", "continent": "Europe", "label": "Sao Domingos de Benfica, Portugal"}, {"latitude": 38.745636, "longitude": -9.18175, "type": "venue", "name": "S\u00e3o Domingos de Benfica", "number": null, "postal_code": null, "street": null, "confidence": 0.8, "region": "Lisboa", "region_code": "LI", "county": null, "locality": null, "administrative_area": null, "neighbourhood": "Furnas", "country": "Portugal", "country_code": "PRT", "continent": "Europe", "label": "S\u00e3o Domingos de Benfica, Portugal"}, {"latitude": 38.742578, "longitude": -9.174088, "type": "street", "name": "Rua S\u00e3o Domingos de Benfica", "number": null, "postal_code": null, "street": "Rua S\u00e3o Domingos de Benfica", "confidence": 0.8, "region": "Lisboa", "region_code": "LI", "county": null, "locality": null, "administrative_area": null, "neighbourhood": "Bairro das Furnas", "country": "Portugal", "country_code": "PRT", "continent": "Europe", "label": "Rua S\u00e3o Domingos de Benfica, Portugal"}, {"latitude": 38.74377, "longitude": -9.186166, "type": "venue", "name": "Mata S\u00e3o Domingos de Benfica", "number": null, "postal_code": null, "street": null, "confidence": 0.8, "region": "Lisboa", "region_code": "LI", "county": null, "locality": null, "administrative_area": null, "neighbourhood": "Furnas", "country": "Portugal", "country_code": "PRT", "continent": "Europe", "label": "Mata S\u00e3o Domingos de Benfica, Portugal"}, {"latitude": 38.745613, "longitude": -9.181451, "type": "venue", "name": "Churrasqueira Del\u00edcia de S\u00e3o Domingos de Benfica", "number": "364", "postal_code": "1500-099", "street": "Estrada de Benfica", "confidence": 0.8, "region": "Lisboa", "region_code": "LI", "county": null, "locality": null, "administrative_area": null, "neighbourhood": "Furnas", "country": "Portugal", "country_code": "PRT", "continent": "Europe", "label": "Churrasqueira Del\u00edcia de S\u00e3o Domingos de Benfica, Portugal"}, {"latitude": 38.743606, "longitude": -9.179527, "type": "venue", "name": "Mercado de S\u00e3o Domingos de Benfica", "number": null, "postal_code": "1500 - 327", "street": "Rua Cecil\u00eda Meireles", "confidence": 0.8, "region": "Lisboa", "region_code": "LI", "county": null, "locality": null, "administrative_area": null, "neighbourhood": "Furnas", "country": "Portugal", "country_code": "PRT", "continent": "Europe", "label": "Mercado de S\u00e3o Domingos de Benfica, Portugal"}, {"latitude": 38.740558, "longitude": -9.17955, "type": "street", "name": "Rua de S\u00e3o Domingos de Benfica", "number": null, "postal_code": null, "street": "Rua de S\u00e3o Domingos de Benfica", "confidence": 0.8, "region": "Lisboa", "region_code": "LI", "county": null, "locality": null, "administrative_area": null, "neighbourhood": "Furnas", "country": "Portugal", "country_code": "PRT", "continent": "Europe", "label": "Rua de S\u00e3o Domingos de Benfica, Portugal"}, {"latitude": 38.742563, "longitude": -9.181972, "type": "street", "name": "Travessa de S\u00e3o Domingos de Benfica", "number": null, "postal_code": null, "street": "Travessa de S\u00e3o Domingos de Benfica", "confidence": 0.8, "region": "Lisboa", "region_code": "LI", "county": null, "locality": null, "administrative_area": null, "neighbourhood": "Furnas", "country": "Portugal", "country_code": "PRT", "continent": "Europe", "label": "Travessa de S\u00e3o Domingos de Benfica, Portugal"}, {"latitude": 38.750707, "longitude": -9.179196, "type": "venue", "name": "Convento de S\u00e3o Domingos de Benfica", "number": null, "postal_code": null, "street": null, "confidence": 0.8, "region": "Lisboa", "region_code": "LI", "county": null, "locality": null, "administrative_area": null, "neighbourhood": "Furnas", "country": "Portugal", "country_code": "PRT", "continent": "Europe", "label": "Convento de S\u00e3o Domingos de Benfica, Portugal"}]}, {"price": 360000, "address": "S%C3%A3o%20Domingos%20de%20Benfica%2C%20Lisboa", "id": "30624867", "size": 165, "url": "https://www.idealista.pt/en/imovel/30624867/", "created": "31-07-2020 00:12:48", "geo": [{"latitude": 38.74603, "longitude": -9.17384, "type": "locality", "name": "S\u00e3o Domingos de Benfica", "number": null, "postal_code": null, "street": null, "confidence": 0.6, "region": "Lisboa", "region_code": "LI", "county": null, "locality": "S\u00e3o Domingos de Benfica", "administrative_area": null, "neighbourhood": null, "country": "Portugal", "country_code": "PRT", "continent": "Europe", "label": "S\u00e3o Domingos de Benfica, Portugal"}, {"latitude": 38.74804, "longitude": -9.17662, "type": "neighbourhood", "name": "Sao Domingos de Benfica", "number": null, "postal_code": null, "street": null, "confidence": 0.6, "region": "Lisboa", "region_code": "LI", "county": null, "locality": null, "administrative_area": null, "neighbourhood": "Sao Domingos de Benfica", "country": "Portugal", "country_code": "PRT", "continent": "Europe", "label": "Sao Domingos de Benfica, Portugal"}, {"latitude": 38.745636, "longitude": -9.18175, "type": "venue", "name": "S\u00e3o Domingos de Benfica", "number": null, "postal_code": null, "street": null, "confidence": 0.8, "region": "Lisboa", "region_code": "LI", "county": null, "locality": null, "administrative_area": null, "neighbourhood": "Furnas", "country": "Portugal", "country_code": "PRT", "continent": "Europe", "label": "S\u00e3o Domingos de Benfica, Portugal"}, {"latitude": 38.742578, "longitude": -9.174088, "type": "street", "name": "Rua S\u00e3o Domingos de Benfica", "number": null, "postal_code": null, "street": "Rua S\u00e3o Domingos de Benfica", "confidence": 0.8, "region": "Lisboa", "region_code": "LI", "county": null, "locality": null, "administrative_area": null, "neighbourhood": "Bairro das Furnas", "country": "Portugal", "country_code": "PRT", "continent": "Europe", "label": "Rua S\u00e3o Domingos de Benfica, Portugal"}, {"latitude": 38.74377, "longitude": -9.186166, "type": "venue", "name": "Mata S\u00e3o Domingos de Benfica", "number": null, "postal_code": null, "street": null, "confidence": 0.8, "region": "Lisboa", "region_code": "LI", "county": null, "locality": null, "administrative_area": null, "neighbourhood": "Furnas", "country": "Portugal", "country_code": "PRT", "continent": "Europe", "label": "Mata S\u00e3o Domingos de Benfica, Portugal"}, {"latitude": 38.745613, "longitude": -9.181451, "type": "venue", "name": "Churrasqueira Del\u00edcia de S\u00e3o Domingos de Benfica", "number": "364", "postal_code": "1500-099", "street": "Estrada de Benfica", "confidence": 0.8, "region": "Lisboa", "region_code": "LI", "county": null, "locality": null, "administrative_area": null, "neighbourhood": "Furnas", "country": "Portugal", "country_code": "PRT", "continent": "Europe", "label": "Churrasqueira Del\u00edcia de S\u00e3o Domingos de Benfica, Portugal"}, {"latitude": 38.743606, "longitude": -9.179527, "type": "venue", "name": "Mercado de S\u00e3o Domingos de Benfica", "number": null, "postal_code": "1500 - 327", "street": "Rua Cecil\u00eda Meireles", "confidence": 0.8, "region": "Lisboa", "region_code": "LI", "county": null, "locality": null, "administrative_area": null, "neighbourhood": "Furnas", "country": "Portugal", "country_code": "PRT", "continent": "Europe", "label": "Mercado de S\u00e3o Domingos de Benfica, Portugal"}, {"latitude": 38.740558, "longitude": -9.17955, "type": "street", "name": "Rua de S\u00e3o Domingos de Benfica", "number": null, "postal_code": null, "street": "Rua de S\u00e3o Domingos de Benfica", "confidence": 0.8, "region": "Lisboa", "region_code": "LI", "county": null, "locality": null, "administrative_area": null, "neighbourhood": "Furnas", "country": "Portugal", "country_code": "PRT", "continent": "Europe", "label": "Rua de S\u00e3o Domingos de Benfica, Portugal"}, {"latitude": 38.742563, "longitude": -9.181972, "type": "street", "name": "Travessa de S\u00e3o Domingos de Benfica", "number": null, "postal_code": null, "street": "Travessa de S\u00e3o Domingos de Benfica", "confidence": 0.8, "region": "Lisboa", "region_code": "LI", "county": null, "locality": null, "administrative_area": null, "neighbourhood": "Furnas", "country": "Portugal", "country_code": "PRT", "continent": "Europe", "label": "Travessa de S\u00e3o Domingos de Benfica, Portugal"}, {"latitude": 38.750707, "longitude": -9.179196, "type": "venue", "name": "Convento de S\u00e3o Domingos de Benfica", "number": null, "postal_code": null, "street": null, "confidence": 0.8, "region": "Lisboa", "region_code": "LI", "county": null, "locality": null, "administrative_area": null, "neighbourhood": "Furnas", "country": "Portugal", "country_code": "PRT", "continent": "Europe", "label": "Convento de S\u00e3o Domingos de Benfica, Portugal"}]}, {"price": 430000, "address": "S%C3%A3o%20Domingos%20de%20Benfica%2C%20Lisboa", "id": "30624865", "size": 165, "url": "https://www.idealista.pt/en/imovel/30624865/", "created": "31-07-2020 00:12:48", "geo": [{"latitude": 38.74603, "longitude": -9.17384, "type": "locality", "name": "S\u00e3o Domingos de Benfica", "number": null, "postal_code": null, "street": null, "confidence": 0.6, "region": "Lisboa", "region_code": "LI", "county": null, "locality": "S\u00e3o Domingos de Benfica", "administrative_area": null, "neighbourhood": null, "country": "Portugal", "country_code": "PRT", "continent": "Europe", "label": "S\u00e3o Domingos de Benfica, Portugal"}, {"latitude": 38.74804, "longitude": -9.17662, "type": "neighbourhood", "name": "Sao Domingos de Benfica", "number": null, "postal_code": null, "street": null, "confidence": 0.6, "region": "Lisboa", "region_code": "LI", "county": null, "locality": null, "administrative_area": null, "neighbourhood": "Sao Domingos de Benfica", "country": "Portugal", "country_code": "PRT", "continent": "Europe", "label": "Sao Domingos de Benfica, Portugal"}, {"latitude": 38.745636, "longitude": -9.18175, "type": "venue", "name": "S\u00e3o Domingos de Benfica", "number": null, "postal_code": null, "street": null, "confidence": 0.8, "region": "Lisboa", "region_code": "LI", "county": null, "locality": null, "administrative_area": null, "neighbourhood": "Furnas", "country": "Portugal", "country_code": "PRT", "continent": "Europe", "label": "S\u00e3o Domingos de Benfica, Portugal"}, {"latitude": 38.742578, "longitude": -9.174088, "type": "street", "name": "Rua S\u00e3o Domingos de Benfica", "number": null, "postal_code": null, "street": "Rua S\u00e3o Domingos de Benfica", "confidence": 0.8, "region": "Lisboa", "region_code": "LI", "county": null, "locality": null, "administrative_area": null, "neighbourhood": "Bairro das Furnas", "country": "Portugal", "country_code": "PRT", "continent": "Europe", "label": "Rua S\u00e3o Domingos de Benfica, Portugal"}, {"latitude": 38.74377, "longitude": -9.186166, "type": "venue", "name": "Mata S\u00e3o Domingos de Benfica", "number": null, "postal_code": null, "street": null, "confidence": 0.8, "region": "Lisboa", "region_code": "LI", "county": null, "locality": null, "administrative_area": null, "neighbourhood": "Furnas", "country": "Portugal", "country_code": "PRT", "continent": "Europe", "label": "Mata S\u00e3o Domingos de Benfica, Portugal"}, {"latitude": 38.745613, "longitude": -9.181451, "type": "venue", "name": "Churrasqueira Del\u00edcia de S\u00e3o Domingos de Benfica", "number": "364", "postal_code": "1500-099", "street": "Estrada de Benfica", "confidence": 0.8, "region": "Lisboa", "region_code": "LI", "county": null, "locality": null, "administrative_area": null, "neighbourhood": "Furnas", "country": "Portugal", "country_code": "PRT", "continent": "Europe", "label": "Churrasqueira Del\u00edcia de S\u00e3o Domingos de Benfica, Portugal"}, {"latitude": 38.743606, "longitude": -9.179527, "type": "venue", "name": "Mercado de S\u00e3o Domingos de Benfica", "number": null, "postal_code": "1500 - 327", "street": "Rua Cecil\u00eda Meireles", "confidence": 0.8, "region": "Lisboa", "region_code": "LI", "county": null, "locality": null, "administrative_area": null, "neighbourhood": "Furnas", "country": "Portugal", "country_code": "PRT", "continent": "Europe", "label": "Mercado de S\u00e3o Domingos de Benfica, Portugal"}, {"latitude": 38.740558, "longitude": -9.17955, "type": "street", "name": "Rua de S\u00e3o Domingos de Benfica", "number": null, "postal_code": null, "street": "Rua de S\u00e3o Domingos de Benfica", "confidence": 0.8, "region": "Lisboa", "region_code": "LI", "county": null, "locality": null, "administrative_area": null, "neighbourhood": "Furnas", "country": "Portugal", "country_code": "PRT", "continent": "Europe", "label": "Rua de S\u00e3o Domingos de Benfica, Portugal"}, {"latitude": 38.742563, "longitude": -9.181972, "type": "street", "name": "Travessa de S\u00e3o Domingos de Benfica", "number": null, "postal_code": null, "street": "Travessa de S\u00e3o Domingos de Benfica", "confidence": 0.8, "region": "Lisboa", "region_code": "LI", "county": null, "locality": null, "administrative_area": null, "neighbourhood": "Furnas", "country": "Portugal", "country_code": "PRT", "continent": "Europe", "label": "Travessa de S\u00e3o Domingos de Benfica, Portugal"}, {"latitude": 38.750707, "longitude": -9.179196, "type": "venue", "name": "Convento de S\u00e3o Domingos de Benfica", "number": null, "postal_code": null, "street": null, "confidence": 0.8, "region": "Lisboa", "region_code": "LI", "county": null, "locality": null, "administrative_area": null, "neighbourhood": "Furnas", "country": "Portugal", "country_code": "PRT", "continent": "Europe", "label": "Convento de S\u00e3o Domingos de Benfica, Portugal"}]}, {"price": 745000, "address": "Centro%20-%20Nova%20Campolide%2C%20Campolide", "id": "30624431", "size": 102, "url": "https://www.idealista.pt/en/imovel/30624431/", "created": "31-07-2020 00:12:48", "geo": [{"latitude": 38.733004, "longitude": -9.160929, "type": "venue", "name": "Universidade Nova de Lisboa - Campus de Campolide", "number": null, "postal_code": null, "street": null, "confidence": 1, "region": "Lisboa", "region_code": "LI", "county": null, "locality": null, "administrative_area": null, "neighbourhood": "Campolide", "country": "Portugal", "country_code": "PRT", "continent": "Europe", "label": "Universidade Nova de Lisboa - Campus de Campolide, Portugal"}, {"latitude": 38.753468, "longitude": -9.213547, "type": "venue", "name": "Centro de Sa\u00fade da Venda Nova - Centro Diagn\u00f3stico Pneumol\u00f3gico", "number": null, "postal_code": null, "street": null, "confidence": 1, "region": "Lisboa", "region_code": "LI", "county": null, "locality": null, "administrative_area": null, "neighbourhood": null, "country": "Portugal", "country_code": "PRT", "continent": "Europe", "label": "Centro de Sa\u00fade da Venda Nova - Centro Diagn\u00f3stico Pneumol\u00f3gico, Portugal"}]}, {"price": 655000, "address": "Centro%20-%20Nova%20Campolide%2C%20Campolide", "id": "30624429", "size": 103, "url": "https://www.idealista.pt/en/imovel/30624429/", "created": "31-07-2020 00:12:48", "geo": [{"latitude": 38.733004, "longitude": -9.160929, "type": "venue", "name": "Universidade Nova de Lisboa - Campus de Campolide", "number": null, "postal_code": null, "street": null, "confidence": 1, "region": "Lisboa", "region_code": "LI", "county": null, "locality": null, "administrative_area": null, "neighbourhood": "Campolide", "country": "Portugal", "country_code": "PRT", "continent": "Europe", "label": "Universidade Nova de Lisboa - Campus de Campolide, Portugal"}, {"latitude": 38.753468, "longitude": -9.213547, "type": "venue", "name": "Centro de Sa\u00fade da Venda Nova - Centro Diagn\u00f3stico Pneumol\u00f3gico", "number": null, "postal_code": null, "street": null, "confidence": 1, "region": "Lisboa", "region_code": "LI", "county": null, "locality": null, "administrative_area": null, "neighbourhood": null, "country": "Portugal", "country_code": "PRT", "continent": "Europe", "label": "Centro de Sa\u00fade da Venda Nova - Centro Diagn\u00f3stico Pneumol\u00f3gico, Portugal"}]}, {"price": 415000, "address": "rua%20Lu%C3%ADs%20de%20Cam%C3%B5es%2C%20102%2C%20Alc%C3%A2ntara%2C%20Lisboa", "id": "30623668", "size": 107, "url": "https://www.idealista.pt/en/imovel/30623668/", "created": "31-07-2020 00:12:48", "geo": [{"latitude": 38.766837, "longitude": -9.296522, "type": "street", "name": "Rua Luis de Cam\u00f5es", "number": null, "postal_code": null, "street": "Rua Luis de Cam\u00f5es", "confidence": 0.8, "region": "Lisboa", "region_code": "LI", "county": null, "locality": null, "administrative_area": null, "neighbourhood": null, "country": "Portugal", "country_code": "PRT", "continent": "Europe", "label": "Rua Luis de Cam\u00f5es, Portugal"}, {"latitude": 38.726889, "longitude": -9.450246, "type": "street", "name": "Rua Lu\u00eds de Cam\u00f5es", "number": null, "postal_code": null, "street": "Rua Lu\u00eds de Cam\u00f5es", "confidence": 0.8, "region": "Lisboa", "region_code": "LI", "county": null, "locality": null, "administrative_area": null, "neighbourhood": null, "country": "Portugal", "country_code": "PRT", "continent": "Europe", "label": "Rua Lu\u00eds de Cam\u00f5es, Portugal"}, {"latitude": 38.800576, "longitude": -9.143462, "type": "street", "name": "Rua Lu\u00eds de Cam\u00f5es", "number": null, "postal_code": null, "street": "Rua Lu\u00eds de Cam\u00f5es", "confidence": 0.8, "region": "Lisboa", "region_code": "LI", "county": null, "locality": null, "administrative_area": null, "neighbourhood": "Lumiar", "country": "Portugal", "country_code": "PRT", "continent": "Europe", "label": "Rua Lu\u00eds de Cam\u00f5es, Portugal"}, {"latitude": 38.699886, "longitude": -9.327683, "type": "street", "name": "Rua Luis de Cam\u00f5es", "number": null, "postal_code": null, "street": "Rua Luis de Cam\u00f5es", "confidence": 0.8, "region": "Lisboa", "region_code": "LI", "county": null, "locality": null, "administrative_area": null, "neighbourhood": "Rato", "country": "Portugal", "country_code": "PRT", "continent": "Europe", "label": "Rua Luis de Cam\u00f5es, Portugal"}, {"latitude": 38.783769, "longitude": -9.280778, "type": "street", "name": "Rua Lu\u00eds de Cam\u00f5es", "number": null, "postal_code": null, "street": "Rua Lu\u00eds de Cam\u00f5es", "confidence": 0.8, "region": "Lisboa", "region_code": "LI", "county": null, "locality": "Venda Seca", "administrative_area": null, "neighbourhood": null, "country": "Portugal", "country_code": "PRT", "continent": "Europe", "label": "Rua Lu\u00eds de Cam\u00f5es, Venda Seca, Portugal"}, {"latitude": 38.70069, "longitude": -9.327559, "type": "street", "name": "Rua Lu\u00eds de Cam\u00f5es", "number": null, "postal_code": null, "street": "Rua Lu\u00eds de Cam\u00f5es", "confidence": 0.8, "region": "Lisboa", "region_code": "LI", "county": null, "locality": null, "administrative_area": null, "neighbourhood": "Rato", "country": "Portugal", "country_code": "PRT", "continent": "Europe", "label": "Rua Lu\u00eds de Cam\u00f5es, Portugal"}, {"latitude": 38.925018, "longitude": -9.234414, "type": "street", "name": "Rua Luis de Cam\u00f5es", "number": null, "postal_code": null, "street": "Rua Luis de Cam\u00f5es", "confidence": 0.8, "region": "Lisboa", "region_code": "LI", "county": null, "locality": "Venda do Pinheiro", "administrative_area": null, "neighbourhood": null, "country": "Portugal", "country_code": "PRT", "continent": "Europe", "label": "Rua Luis de Cam\u00f5es, Venda do Pinheiro, Portugal"}]}, {"price": 665000, "address": "T2 flat, campo M\u00e1rtires de P\u00e1tria, Pena, Arroios", "id": "30623903", "size": 176, "url": "https://www.idealista.pt/en/imovel/30623903/", "created": "31-07-2020 00:12:48", "geo": [{"latitude": 38.70047, "longitude": -9.386603, "type": "venue", "name": "Short Stay Flats", "number": "6193", "postal_code": null, "street": "Avenida Marginal", "confidence": 0.8, "region": "Lisboa", "region_code": "LI", "county": null, "locality": null, "administrative_area": null, "neighbourhood": null, "country": "Portugal", "country_code": "PRT", "continent": "Europe", "label": "Short Stay Flats, Portugal"}, {"latitude": 38.73891, "longitude": -9.13385, "type": "venue", "name": "Flattered To Be In Lisboa", "number": null, "postal_code": null, "street": null, "confidence": 0.8, "region": "Lisboa", "region_code": "LI", "county": null, "locality": null, "administrative_area": null, "neighbourhood": "Alto do Pina", "country": "Portugal", "country_code": "PRT", "continent": "Europe", "label": "Flattered To Be In Lisboa, Portugal"}]}, {"price": 545000, "address": "rua%20Carvalho%20Ara%C3%BAjo%2C%20NN%2C%20Alameda%20-%20Pra%C3%A7a%20do%20Chile%20-%20Almirante%20Reis%2C%20S%C3%A3o%20Jorge%20de%20Arroios%2C%20Arroios", "id": "30622971", "size": 169, "url": "https://www.idealista.pt/en/imovel/30622971/", "created": "31-07-2020 00:12:48", "geo": [{"latitude": 38.734778, "longitude": -9.131259, "type": "street", "name": "Rua Carvalho Ara\u00fajo", "number": null, "postal_code": null, "street": "Rua Carvalho Ara\u00fajo", "confidence": 0.8, "region": "Lisboa", "region_code": "LI", "county": null, "locality": null, "administrative_area": null, "neighbourhood": "Alto do Pina", "country": "Portugal", "country_code": "PRT", "continent": "Europe", "label": "Rua Carvalho Ara\u00fajo, Portugal"}, {"latitude": 38.695417, "longitude": -9.371253, "type": "street", "name": "Rua Carvalho Ara\u00fajo", "number": null, "postal_code": null, "street": "Rua Carvalho Ara\u00fajo", "confidence": 0.8, "region": "Lisboa", "region_code": "LI", "county": null, "locality": null, "administrative_area": null, "neighbourhood": null, "country": "Portugal", "country_code": "PRT", "continent": "Europe", "label": "Rua Carvalho Ara\u00fajo, Portugal"}, {"latitude": 38.69677, "longitude": -9.425851, "type": "street", "name": "Rua Jos\u00e9 Carvalho Ara\u00fajo", "number": null, "postal_code": null, "street": "Rua Jos\u00e9 Carvalho Ara\u00fajo", "confidence": 0.8, "region": "Lisboa", "region_code": "LI", "county": null, "locality": null, "administrative_area": null, "neighbourhood": null, "country": "Portugal", "country_code": "PRT", "continent": "Europe", "label": "Rua Jos\u00e9 Carvalho Ara\u00fajo, Portugal"}, {"latitude": 38.746961, "longitude": -9.218807, "type": "venue", "name": "Jardim Carvalho Araujo", "number": null, "postal_code": null, "street": null, "confidence": 0.8, "region": "Lisboa", "region_code": "LI", "county": null, "locality": null, "administrative_area": null, "neighbourhood": null, "country": "Portugal", "country_code": "PRT", "continent": "Europe", "label": "Jardim Carvalho Araujo, Portugal"}, {"latitude": 38.721894, "longitude": -9.118543, "type": "street", "name": "Rua Matilde Rosa Ara\u00fajo", "number": null, "postal_code": null, "street": "Rua Matilde Rosa Ara\u00fajo", "confidence": 0.8, "region": "Lisboa", "region_code": "LI", "county": null, "locality": null, "administrative_area": null, "neighbourhood": "Caminhos de Ferro", "country": "Portugal", "country_code": "PRT", "continent": "Europe", "label": "Rua Matilde Rosa Ara\u00fajo, Portugal"}, {"latitude": 38.926726, "longitude": -9.231952, "type": "street", "name": "Rua Joaquim Carvalho", "number": null, "postal_code": null, "street": "Rua Joaquim Carvalho", "confidence": 0.8, "region": "Lisboa", "region_code": "LI", "county": null, "locality": "Venda do Pinheiro", "administrative_area": null, "neighbourhood": null, "country": "Portugal", "country_code": "PRT", "continent": "Europe", "label": "Rua Joaquim Carvalho, Venda do Pinheiro, Portugal"}, {"latitude": 38.715353, "longitude": -9.164657, "type": "venue", "name": "Rua Saraiva de Carvalho", "number": null, "postal_code": null, "street": null, "confidence": 0.8, "region": "Lisboa", "region_code": "LI", "county": null, "locality": null, "administrative_area": null, "neighbourhood": "Estrela", "country": "Portugal", "country_code": "PRT", "continent": "Europe", "label": "Rua Saraiva de Carvalho, Portugal"}, {"latitude": 39.099318, "longitude": -9.397174, "type": "street", "name": "Rua Carvalho", "number": null, "postal_code": null, "street": "Rua Carvalho", "confidence": 0.8, "region": "Lisboa", "region_code": "LI", "county": null, "locality": null, "administrative_area": null, "neighbourhood": null, "country": "Portugal", "country_code": "PRT", "continent": "Europe", "label": "Rua Carvalho, Portugal"}, {"latitude": 38.711736, "longitude": -9.129987, "type": "venue", "name": "Rua Norberto de Ara\u00fajo", "number": null, "postal_code": null, "street": null, "confidence": 0.8, "region": "Lisboa", "region_code": "LI", "county": null, "locality": null, "administrative_area": null, "neighbourhood": "Castelo", "country": "Portugal", "country_code": "PRT", "continent": "Europe", "label": "Rua Norberto de Ara\u00fajo, Portugal"}, {"latitude": 38.750605, "longitude": -9.256312, "type": "street", "name": "Rua Almeida Ara\u00fajo", "number": null, "postal_code": null, "street": "Rua Almeida Ara\u00fajo", "confidence": 0.8, "region": "Lisboa", "region_code": "LI", "county": null, "locality": null, "administrative_area": null, "neighbourhood": null, "country": "Portugal", "country_code": "PRT", "continent": "Europe", "label": "Rua Almeida Ara\u00fajo, Portugal"}]}, {"price": 525000, "address": "Prazeres%2C%20Estrela", "id": "30624639", "size": 110, "url": "https://www.idealista.pt/en/imovel/30624639/", "created": "31-07-2020 00:12:48", "geo": [{"latitude": 38.70685, "longitude": -9.16819, "type": "locality", "name": "Prazeres", "number": null, "postal_code": null, "street": null, "confidence": 1, "region": "Lisboa", "region_code": "LI", "county": null, "locality": "Prazeres", "administrative_area": null, "neighbourhood": null, "country": "Portugal", "country_code": "PRT", "continent": "Europe", "label": "Prazeres, Portugal"}, {"latitude": 38.706187, "longitude": -9.169249, "type": "neighbourhood", "name": "Prazeres", "number": null, "postal_code": null, "street": null, "confidence": 1, "region": "Lisboa", "region_code": "LI", "county": null, "locality": null, "administrative_area": null, "neighbourhood": "Prazeres", "country": "Portugal", "country_code": "PRT", "continent": "Europe", "label": "Prazeres, Portugal"}, {"latitude": 38.7083, "longitude": -9.16833, "type": "neighbourhood", "name": "Prazeres", "number": null, "postal_code": null, "street": null, "confidence": 1, "region": "Lisboa", "region_code": "LI", "county": null, "locality": null, "administrative_area": null, "neighbourhood": "Lapa", "country": "Portugal", "country_code": "PRT", "continent": "Europe", "label": "Prazeres, Portugal"}, {"latitude": 38.714335, "longitude": -9.169918, "type": "venue", "name": "Campo de Ourique (Prazeres)", "number": null, "postal_code": null, "street": null, "confidence": 1, "region": "Lisboa", "region_code": "LI", "county": null, "locality": null, "administrative_area": null, "neighbourhood": "Campo de Ourique", "country": "Portugal", "country_code": "PRT", "continent": "Europe", "label": "Campo de Ourique (Prazeres), Portugal"}, {"latitude": 38.690165, "longitude": -9.353597, "type": "venue", "name": "Mercearia Prazeres", "number": "99", "postal_code": null, "street": "Rua Jos\u00e9 Relvas", "confidence": 1, "region": "Lisboa", "region_code": "LI", "county": null, "locality": null, "administrative_area": null, "neighbourhood": null, "country": "Portugal", "country_code": "PRT", "continent": "Europe", "label": "Mercearia Prazeres, Portugal"}, {"latitude": 38.721327, "longitude": -9.119821, "type": "venue", "name": "Escola Patr\u00edcio Prazeres", "number": null, "postal_code": null, "street": null, "confidence": 1, "region": "Lisboa", "region_code": "LI", "county": null, "locality": null, "administrative_area": null, "neighbourhood": "Bairro Lopes", "country": "Portugal", "country_code": "PRT", "continent": "Europe", "label": "Escola Patr\u00edcio Prazeres, Portugal"}, {"latitude": 38.829464, "longitude": -9.100534, "type": "street", "name": "Rua dos Prazeres", "number": null, "postal_code": null, "street": "Rua dos Prazeres", "confidence": 1, "region": "Lisboa", "region_code": "LI", "county": null, "locality": null, "administrative_area": null, "neighbourhood": null, "country": "Portugal", "country_code": "PRT", "continent": "Europe", "label": "Rua dos Prazeres, Portugal"}, {"latitude": 38.714219, "longitude": -9.169155, "type": "street", "name": "Parada dos Prazeres", "number": null, "postal_code": null, "street": "Parada dos Prazeres", "confidence": 1, "region": "Lisboa", "region_code": "LI", "county": null, "locality": null, "administrative_area": null, "neighbourhood": "Campo de Ourique", "country": "Portugal", "country_code": "PRT", "continent": "Europe", "label": "Parada dos Prazeres, Portugal"}, {"latitude": 38.71457, "longitude": -9.166459, "type": "street", "name": "Travessa dos Prazeres", "number": null, "postal_code": null, "street": "Travessa dos Prazeres", "confidence": 1, "region": "Lisboa", "region_code": "LI", "county": null, "locality": null, "administrative_area": null, "neighbourhood": "Campo de Ourique", "country": "Portugal", "country_code": "PRT", "continent": "Europe", "label": "Travessa dos Prazeres, Portugal"}, {"latitude": 38.690481, "longitude": -9.335227, "type": "venue", "name": "P\u00e1teo dos Prazeres", "number": "3", "postal_code": "2775", "street": "Pra\u00e7a Da Rep\u00fablica", "confidence": 1, "region": "Lisboa", "region_code": "LI", "county": null, "locality": null, "administrative_area": null, "neighbourhood": "Rato", "country": "Portugal", "country_code": "PRT", "continent": "Europe", "label": "P\u00e1teo dos Prazeres, Portugal"}]}, {"price": 595000, "address": "Centro%20-%20Nova%20Campolide%2C%20Campolide", "id": "30624427", "size": 143, "url": "https://www.idealista.pt/en/imovel/30624427/", "created": "31-07-2020 00:12:48", "geo": [{"latitude": 38.733004, "longitude": -9.160929, "type": "venue", "name": "Universidade Nova de Lisboa - Campus de Campolide", "number": null, "postal_code": null, "street": null, "confidence": 1, "region": "Lisboa", "region_code": "LI", "county": null, "locality": null, "administrative_area": null, "neighbourhood": "Campolide", "country": "Portugal", "country_code": "PRT", "continent": "Europe", "label": "Universidade Nova de Lisboa - Campus de Campolide, Portugal"},